Address,City,Lat,Lon
Bovenweg 223,Sint Pancras,52.6530852,4.7806014
Julianastraat 19,Waddinxveen,52.0429286,4.6564592
Kuipersgilde 3,Houten,52.0347605,5.1766045
De Kamp 1 A,Pannerden,51.88904849999999,6.0408078
Wildrijklaan 8,Sassenheim,52.2183432,4.5063729
Tol 4,Oudewater,52.0275855,4.8762696
Furkabaan 698,Utrecht,52.0599527,5.1388063
Abeelstraat 71,Dordrecht,51.7864097,4.707951899999999
Overegge 8,Zuidveen,52.77855,6.1054812
Gaasterland 59,Amstelveen,52.2821524,4.8224284
Oostopgaande 53,Nieuwlande,52.69579539999999,6.6267241
Ghijseland 198,Rhoon,51.858829,4.4311634
Diedenweg 10 A,Ede,52.0252044,5.6635154
Klaverbeemd 4,Terheijden,51.6440619,4.7566669
Burgemeester Schoutenstraat 13,Schaijk,51.7452681,5.630529699999999
Bouwhuisweg 10,Nieuwleusen,52.57423790000001,6.273938999999999
Kerkstraat 20,Linden,51.7488433,5.830735499999999
Kanariehof 25,Ermelo,52.295871,5.602568
Vlasven 33,Veghel,51.6343085,5.5581061
Mozartdreef 24,Veenendaal,52.0339167,5.5324619
Waardenborchstraat 28,Holten,52.2799245,6.4278879
Schrijvershoeve 22,Helmond,51.456661,5.607746
Vinkenbaan 5,Gilze,51.5479344,4.9356768
Sierra Nevada 70,Assendelft,52.4870604,4.7560638
Culenhof 48,Nuenen,51.461419,5.540413
Gentiaanstraat 84,Apeldoorn,52.2256048,5.9815361
Bovenste Boord 17,Linne,51.15735919999999,5.9492065
Tilburgweg 45,Arnhem,51.9511048,5.8545903
St Gertrudislaan 11,Eindhoven,51.42566129999999,5.4970776
Meerstraat 35,Hillegom,52.2927956,4.5813627
Onyx 7,'s-Gravenzande,52.0012836,4.1670315
Barend Kuisstraat 42,Nijkerk,52.2182879,5.4756181
Aart van der Leeuwstraat 8,Gorinchem,51.83817699999999,4.9999934
Indusstraat 38,Spijkenisse,51.84235529999999,4.353173
Baardmosstraat 3,Purmerend,52.49967530000001,4.955309
Lankforst 4205,Nijmegen,51.8140222,5.8087721
Jadeplantsoen 17,Almere,52.39472240000001,5.2993788
Lindestraat 10,St. Willebrord,51.551531,4.5793801
Prinsenstraat 7,Rijssen,52.3041262,6.5070099
Hoenderhof 4,Delfzijl,53.31553109999999,6.8973607
De Nachtegaal 22 G,Surhuisterveen,53.1881855,6.166690200000001
Eline Verelaan 17,Oosterhout (NB),51.6535688,4.8397057
Watermunt 86,Tegelen,51.3487672,6.136632
Napoleonshoed 41,Oosterhout (NB),51.6501405,4.8320604
Bovendonksestraat 47,Hoeven,51.5799987,4.5802609
Kleine Hassel 6,Lage Mierde,51.4025621,5.1467076
Rosmolen 100,Alphen aan den Rijn,52.1209274,4.672411100000001
Eisenhowerstraat 1,Oss,51.7731216,5.5237583
C.M. van Reesstraat 8,Sliedrecht,51.8187293,4.7706471
Rietmeent 75,Almere,52.3344118,5.233772399999999
't Muurke 2,Wanroij,51.65977160000001,5.8058
Osingastate 15,Leeuwarden,53.212904,5.8479601
Kamp 13 33,Lelystad,52.501504,5.481637399999999
Meester A Datemalaan 8,Kesteren,51.9294695,5.5771108
Prins Mauritslaan 156 E,Den Haag,52.09693350000001,4.273189599999999
Bromhaar 11,Nieuw Heeten,52.3201782,6.3490711
Waterhoefweg 13,Oisterwijk,51.5814953,5.2078193
Prinsenlaan 32,Emmen,52.7865811,6.902425399999999
Heerstraat 32,Maasbommel,51.8343018,5.5367332
Bolderik 21,Venray,51.530438,5.9855847
Saltholm 6,Zaandam,52.4334243,4.8259435
Hanendorperweg 25,Emst,52.31389069999999,5.972114299999999
Dr. Ramaerlaan 26,Castricum,52.5582527,4.6532403
Middenweg 71 C,Middenbeemster,52.57035920000001,4.9266193
Zandhovenstraat 4,Breda,51.61047000000001,4.7896667
Rivierdijk 655,Sliedrecht,51.8165846,4.7822473
Weerdingerweg 27,Valthe,52.8349547,6.908533599999999
Wilhelminastraat 15,Meteren,51.8661817,5.283977399999999
Strammerboogh 19,Akersloot,52.5561035,4.7293873
Zwarteweg 15,Leusden,52.1383065,5.4260899
Roer 9,Deurne,51.4587898,5.8048302
Frans Halslaan 13,Akersloot,52.5644285,4.7349283
Hondstong 8,Heemskerk,52.5115267,4.653830000000001
Rijksweg 31,Nuland,51.72103329999999,5.4412804
Drieseweg 6,Putten,52.26015599999999,5.6150803
Dorpsstraat 16 a,Zieuwent,52.0023495,6.5209855
Richtershof 35,Kapel Avezaath (Gem. Tiel),51.8818487,5.374170299999999
Groningerstraat 157,Assen,53.0023422,6.565341099999999
Noordlandseweg 77 C,'s-Gravenzande,51.9966643,4.1423645
Dennekruid 210,Rotterdam,51.95598769999999,4.5576294
Singel 250,Vlissingen,51.44995400000001,3.5738384
Waalsteenhof 15,Hillegom,52.28723,4.591108
De Gijster 72,Made,51.6777481,4.8046707
Noordstraat 5,Poortvliet,51.54454639999999,4.1427022
Muidenstraat 23,Emmeloord,52.7009768,5.7585118
Buitenerf 132,Breda,51.6144091,4.748747499999999
Fluitenkruid 4,Gorinchem,51.8451442,4.9605269
Heukelom 7,Afferden (LI),51.62402849999999,6.0270328
Maanglans 28,Amersfoort,52.1981377,5.3770641
Emmapark 3,Wageningen,51.9644358,5.6618562
Dwarsweg 4,Elp,52.88041219999999,6.645128
Van Lingelaan 81,Maarssen,52.1413074,5.0536631
Lebuinusstraat 19,Doetinchem,51.9824196,6.2912669
Straat van Dover 88,Amersfoort,52.1917964,5.4147725
Trix Terwindtstraat 17,Spijkenisse,51.8338017,4.357246
Brouwhuis 49,Blokker,52.6634176,5.0802188
Liefkenshoek 26,Riel,51.5296151,5.0286382
Mariënstein 84,Heiloo,52.601171,4.688505
Cornelis Troostlaan 3,Heeze,51.39322110000001,5.5774094
Boterbloem 17,Zeeland,51.6993315,5.6805999
Madernolaan 11,Eindhoven,51.4669903,5.4594736
Laakboulevard 162,Amersfoort,52.201742,5.4205772
Mantingerzand 71,Ede,52.0479841,5.631914
Cor van Osnabruggelaan 98,Voorschoten,52.1184425,4.443329299999999
Stoelenmatter 20,Best,51.5065473,5.3931355
de Weide 8,Lopik,51.9739284,4.956260400000001
Jhr. Ruys de Beerenbroeckstraat 3,Veghel,51.6129687,5.549666800000001
Meester Haddersstraat 12,Wijster,52.8164019,6.5170155
Aalsburg 1420,Wijchen,51.8073935,5.7139608
Eibert den Herderstraat 18,Harderwijk,52.3493933,5.6245382
Van Ekelenburgstraat 36,Nieuw-Amsterdam,52.7172442,6.8534915
Woude 36 D,de Woude,52.54692120000001,4.7757441
Amaliastein 82,Vianen (UT),51.9863362,5.0696686
Halve Maanstraat 12,Oostkapelle,51.56712539999999,3.5484659
Vliegent Hert 86,Lelystad,52.51540319999999,5.4408308
Populier 62,Best,51.5153302,5.390172
Julianastraat 55,Groot-Ammers,51.9258762,4.824117
Kennemerlaan 111,IJmuiden,52.46027609999999,4.6098251
Watermuntlaan 1,Oosthuizen,52.5696573,4.9970484
Smederij 148,Dronten,52.53838,5.683703599999999
Hoofdvaart 175,Dedemsvaart,52.5975385,6.4365326
Ridderspoor 18,Krimpen aan den IJssel,51.9225936,4.624419899999999
Merelstraat 11,Neede,52.1335324,6.6037078
Hollmanstraat 16,Sittard,50.99821679999999,5.8845719
Kerkweg 49,Malden,51.7859708,5.8462195
Carolusgulden 3,Dronten,52.5331169,5.705076200000001
Margrietstraat 2,Aalsmeer,52.27795589999999,4.7989817
Pelsakker 54,Breda,51.5734988,4.7926529
Rembrandtstraat 78,Nijmegen,51.837393,5.882177299999999
Watervogel 63,Lathum,51.9935028,6.045327599999999
Bovenstreek 14,Groningen,53.237759,6.5879984
Kerkdijk 25,Achterveld (UT),52.1349676,5.4995234
Staatssecretarislaan 144,Zwolle,52.4762229,6.1156865
Kastanjelaan 7,Lexmond,51.9624468,5.032754499999999
Jolwerf 22,Gouda,52.0347524,4.7137968
Arnhemseweg 218 2,Apeldoorn,52.1964775,5.9616666
Wortelstraat 13,Harlingen,53.1766643,5.4221599
Berkenpark 8,Beuningen (GE),51.8524498,5.7692472
St. Antoniuslaan 22,Sassenheim,52.2233184,4.5217082
Diepvoorde 3015,Wijchen,51.80373179999999,5.7267041
Breeuwer 113,Hoorn (NH),52.6549463,5.0471853
Petrus Dorrstraat 12,Kerkrade,50.8583101,6.021240300000001
Horusstraat 4,Almere,52.3527347,5.153526299999999
Meester Sprenkelsstraat 2,Sint Anthonis,51.6257491,5.8792601
Van Boetzelaerlaan 207,Den Haag,52.09404319999999,4.2712108
Essenrode 12,Voorhout,52.2282143,4.4805375
Adriaan van Ostadestraat 50,Almere,52.3801441,5.2539715
Koningsspil 13,Wieringerwaard,52.8416065,4.8640249
Chopinstraat 2,Castricum,52.5557654,4.674680599999999
Zwaluwweg 67,Enkhuizen,52.71493299999999,5.2750805
Zwanenveld 3115,Nijmegen,51.8213015,5.8051137
Breedweerlaan 123,Heemskerk,52.5201815,4.6864009
Koriander 2,Gendringen,51.8782309,6.374597
Savanne 103,Capelle aan den IJssel,51.9345393,4.610629299999999
Begoniastraat 41,Nieuw-Buinen,52.9756711,6.948623599999999
Angeler 17,Nijkerk,52.2156615,5.469251400000001
Tongerseweg 91,Maastricht,50.8428193,5.674639
Christinastraat 20,Kats,51.5695662,3.886276699999999
Weidmanstraat 16,Maastricht,50.86338680000001,5.6941934
Westerwolde 10,Lelystad,52.4957881,5.469034800000001
Speelkamp 59,Leusden,52.1415327,5.427346500000001
Havenkade 2,'s Gravenmoer,51.6585098,4.9474105
Zuiderdiep 203,Valthermond,52.8694875,6.940904700000001
P. Ketelaarstraat 8,Raamsdonksveer,51.7050043,4.8723974
Standerdlaan 10,Heiloo,52.60645,4.69225
Mercurion 6,Zevenaar,51.9437636,6.075607199999999
Paulus Potterstraat 51,Zutphen,52.139229,6.2108929
Binnenpad 143,Giethoorn,52.7175391,6.0907182
Singel 123,Odijk,52.0528893,5.2422748
Orionstraat 22,Eindhoven,51.4706825,5.494307
Laan van Kanaän 3,Beverwijk,52.4906808,4.657775099999999
Henriette Roland-Holststraat 8,Gorinchem,51.8315845,4.9976439
Johannaweg 20,Oosterbeek,51.9858217,5.8426103
Eikenstraat 41,Dongen,51.6182558,4.9459365
Plataanstraat 52,Made,51.6771585,4.8009232
Minderbroederstraat 8,Zierikzee,51.6512645,3.9168911
Van Boshuizenstraat 551,Amsterdam,52.324547,4.875362099999999
Ambon 5,Barneveld,52.1283657,5.576137699999999
Hollandseweg 125,Wageningen,51.9855604,5.6893699
Hazeleger 2,Hoevelaken,52.17114609999999,5.464977
Granietstraat 57,Oss,51.7644628,5.5015585
Oldenkottebrink 11,Enschede,52.1857835,6.8819399
Witkopeend 5,Uithoorn,52.2347537,4.8124778
Stationsweg 26 D,Oosterbeek,51.9912453,5.8393088
Smaragd 6,Mijdrecht,52.2149353,4.8687113
Driek van Erpstraat 21,Oss,51.7705335,5.5175816
Arkelse Onderweg 76,Gorinchem,51.8428735,4.985064599999999
Scholeksterweide 22,Renswoude,52.075429,5.547422
Pending 7,Hoogvliet Rotterdam,51.8564424,4.3705489
Heeskesacker 1150,Nijmegen,51.8357961,5.7903136
Rembrandtkade 16,Wormerveer,52.48168219999999,4.805324
Kikkerveen 308,Spijkenisse,51.836305,4.3390027
Schuitenberg 25,Roermond,51.1910864,5.9886554
Kilianusstraat 5,Stein,50.9593696,5.7671055
Irenelaan 24,Vught,51.656456,5.293958
Ebro 38,Doetinchem,51.9526905,6.2595842
Koningsweg 3,Nijverdal,52.3484109,6.47565
Staartmolen 19,Vianen (UT),51.9820585,5.0717649
Hyacintenlaan 67,Hilversum,52.2168465,5.1641249
Braamstraat 33,Monster,52.0309203,4.1764796
Melis Stokelaan 50,Beverwijk,52.4912617,4.6881178
Telefoonstraat 5 B en C,Tilburg,51.5571849,5.0847318
De Voorreep 63,Erica,52.7197468,6.924616899999999
Julianastraat 37 D,Hooge Zwaluwe,51.689846,4.741707
Jan Hendrik op den Veldestraat 12,Zaandam,52.4388805,4.8376643
Goeman Borgesiusstraat 2,Nijmegen,51.8071376,5.8356636
Laan van Osnabrück 5,Haarlem,52.3606212,4.6504371
Traverse 6,Hellevoetsluis,51.8318632,4.13181
Zijlvest 51,Haarlem,52.3813317,4.6285208
Vogelenzang 13,Sliedrecht,51.823768,4.7870746
Tarwedreef 76,Doetinchem,51.9665259,6.252264599999999
Don Rualaan 81,'s-Heerenberg,51.8730436,6.2545424
Van der Valk Boumanweg 228,Leiderdorp,52.1603645,4.51643
Ericasestraat 25,Erica,52.7376338,6.9169664
W. de Vries Robbéweg 46,Gorinchem,51.8374505,4.9788339
Stationsstraat 35,Roosendaal,51.5383922,4.4566156
Albertina van Nassaustraat 30,Eindhoven,51.4379998,5.4664927
Torenstraat 17,Nijkerk,52.2248844,5.4823891
Hofmeesterij 58,Huissen,51.9366448,5.925541
Padakker 63,Breda,51.6059981,4.7352909
Egelzoom 8,Pijnacker,52.002747,4.4409529
Weteringkade 34,Noordwijk (ZH),52.2397734,4.445884599999999
Potgieterstraat 71,Nijverdal,52.3516364,6.4744993
Poelakkerweg 11,Lunteren,52.08217579999999,5.626547899999999
Willibrordusstraat 1,'s-Heerenhoek,51.4532383,3.7734573
Akkersvoorde 22,Spijkenisse,51.8350275,4.322318399999999
Dentgenbachweg 11,Kerkrade,50.89040929999999,6.0467984
Schubertstraat 20,Amsterdam,52.3476976,4.8777748
Minahassastraat 63,Haarlem,52.4073131,4.652402299999999
Jacob van Ruysdaelstraat 20,Hoogezand,53.1648585,6.7662708
Loodglans 8,Heerhugowaard,52.6593318,4.820376899999999
Mgr. Nolensstraat 40,Panningen,51.3251606,5.980491199999999
Zutphenseweg 111,Lochem,52.144227,6.3635858
Zandgolf 34,Eindhoven,51.4499933,5.409141399999999
Sandenburglaan 2,Helmond,51.491097,5.6988151
Lunterenstraat 53,Tilburg,51.5880316,4.9998156
Dorpsstraat 14,Ellemeet,51.7293882,3.8167696
Dorpsstraat 21,Zwartewaal,51.8819935,4.2233791
Sterappel 26,Tiel,51.8876176,5.4278765
Pijperhof 7,Raamsdonksveer,51.6892425,4.8789811
Klapwijkseweg 51,Pijnacker,52.0185744,4.4389353
Herfst 73,Dronten,52.5046287,5.722924799999999
Mina Krusemanpark 130,Heemskerk,52.5223774,4.68289
Berliozstraat 3,Alkmaar,52.64376189999999,4.7355771
Valeriaandonk 1,Spijkenisse,51.8294946,4.3272074
Crocussenstraat 13,Lisse,52.2577816,4.5611161
Haverkampsweg 7,Epe,52.3432324,5.9840684
Korfstraat 5,Kudelstaart,52.2375351,4.761648
Halsterveld 1,Houten,52.0421426,5.1754279
't Slotje 24,Beek en Donk,51.5315456,5.6375588
Greppelland 8,Nijkerk,52.2145948,5.4702665
De Bargies 65,Emmen,52.7699641,6.9558319
Beekseweg 8,Wehl,51.95905699999999,6.2095549
Heilige Stoel 5534,Wijchen,51.8162495,5.7173625
Koningsspil 7,Sint Pancras,52.66472839999999,4.7938659
Dongedal 31,Capelle aan den IJssel,51.93715350000001,4.605802499999999
Diepenbeekstraat 57,Breda,51.61003609999999,4.7881778
Hoefslagstraat 1,Ootmarsum,52.4048263,6.909745
Vossenlaan 1,Bergen (LI),51.6023311,6.0598097
Krompbunderstraat 6,Stein,50.9671613,5.7708429
Hoveniersberg 14,Roosendaal,51.5150799,4.4359351
Vogelakker 24,Almere,52.3378699,5.3217405
Deldensestraat 35,Borne,52.294663,6.745978000000001
Jonathan 31,Hardinxveld-Giessendam,51.8272476,4.814286
van Rechterenlaan 22,Grave,51.74839230000001,5.748787999999999
Vincent van Goghstraat 4,Lisse,52.24480639999999,4.5588498
Duin en Beeklaan 14,Bloemendaal,52.4233266,4.6175494
Porta Toga 10,Houten,52.0178251,5.181254399999999
van Aerschotstraat 13,Zevenbergen,51.64805250000001,4.6047538
Erasmussingel 50,Arnhem,51.9450461,5.894936899999999
Maalsteen 20,Borger,52.9181883,6.7875466
Perzikkruid 38,Zevenbergen,51.6387138,4.5910446
Douzastraat 8,Noordwijk (ZH),52.23254739999999,4.4453778
Drechterland 15,Purmerend,52.4955908,4.9697042
Barneveldseweg 16,Otterlo,52.1055098,5.7461891
Oudewal 20,Warmenhuizen,52.7199396,4.7317221
Veldbloemenweg 143,Zaandam,52.4592308,4.8262641
Broenskuil 7,Herten,51.1764749,5.9593937
Balsemkruid 35,Rotterdam,51.9579534,4.551919499999999
Prof. Oudemansstraat 75,Delft,52.0048568,4.3801383
Johan Abersonstraat 48,Purmerend,52.49160269999999,4.960341199999999
Nieuwstad 64,Burgum,53.1980143,6.0089771
Wilsonstraat 40,Goes,51.5177552,3.8775657
Graaf Janstraat 2,Zuid-Beijerland,51.751259,4.366043599999999
Humperdinckstraat 59,Tilburg,51.5814786,5.080285
Ambachtstraat 29,Wageningen,51.97300500000001,5.671063999999999
Witte Ring 65,Assendelft,52.4874933,4.7420319
De Weem 2,Westervoort,51.9603584,5.9629086
Zwarte Ring 83,Assendelft,52.4890059,4.7438763
Selzerbeek 15,Zaandam,52.470568,4.845496400000001
Argostraat 22,Eindhoven,51.465713,5.4949561
Rijksstraatweg 109,Heemskerk,52.5102273,4.6531568
Tak van Poortvlietstraat 2 a,Zutphen,52.1334128,6.206158599999999
Hillegommerdijk 355 a,Beinsdorp,52.28825699999999,4.5942721
Glazenmaker 8,Oost West en Middelbeers,51.4636795,5.2547877
Mars 5,Schijndel,51.6196625,5.4334973
Bergmolen 47,Alphen aan den Rijn,52.1251121,4.668721199999999
Ridderhoflaan 91,Koudekerk aan den Rijn,52.1354013,4.6047144
Johannes Husslaan 11,Amstelveen,52.2963542,4.862943899999999
Straatweide 2,Prinsenbeek,51.6032539,4.703846299999999
Kooikersdreef 705,Apeldoorn,52.1973559,5.987457099999999
Janneke van der Plaatstraat 9,Zutphen,52.127221,6.2300953
Landmetersveld 803,Apeldoorn,52.1898478,5.9996198
Moggendries 30,Eindhoven,51.4412901,5.5241853
Zeeweg 202,IJmuiden,52.45491089999999,4.627815399999999
Eikelaar 4,Geldrop,51.414701,5.5595994
Boomstede 33,Maarssen,52.1218478,5.0323988
De Wildert 18,Berkel en Rodenrijs,51.9956986,4.4804487
Otellostraat 6,Spijkenisse,51.8356483,4.3166647
Ambrosiushof 47,Haarsteeg,51.7118901,5.203259
Runde 40,Assen,52.9995904,6.537210699999999
Paukeslag 142,Etten-Leur,51.5660772,4.627791
Herfststraat 3,Amsterdam,52.3064388,5.0165905
Sweelinckstraat 53,Numansdorp,51.7376934,4.4328962
Asserpark 4,Wageningen,51.9777287,5.678874899999999
Bouvigne 15,Den Bosch,51.7225037,5.3064107
Loenerveld 62,Nieuw-Vennep,52.2693253,4.604892299999999
Meers 5,Geldrop,51.4288889,5.5466441
Overslaggronden 15,Kampen,52.5354403,5.9326307
Bakemastraat 7,Amersfoort,52.1838797,5.4009654
Van Oldenbarneveltstraat 46,Nijkerk,52.2166994,5.4809626
Lookhof 1,Angeren,51.9176428,5.9596149
Het Kasteel 216,Apeldoorn,52.212162,6.0141005
Het Rinket 6,Meerstad,53.23284,6.655873
Spoorstraat 126,Leeuwarden,53.1983707,5.813087899999999
Uiterdijkenweg 47 A,Marknesse,52.7438686,5.9237444
Rijnsburgerweg 94,Leiden,52.1712511,4.4782361
Sportlaan 31,Werkendam,51.8076115,4.9012851
Hertenkamp 21,Tholen,51.5309244,4.2121387
Havikhorst 87,Roermond,51.1861869,6.024288299999999
Schuurmanslaantje 6,Nieuwleusen,52.5712564,6.289864
Boerenhoek 87,Hoogvliet Rotterdam,51.8621217,4.363091499999999
Veldkampje 1,Dalfsen,52.5336276,6.3119556
Leeuwerik 7,Bergambacht,51.9373552,4.7912227
Boomgaard 9,Schoonhoven,51.9525204,4.8432204
Bogerdweg 24,Dreischor,51.6861524,3.9803705
Rochtstraat 6,Sleen,52.7724939,6.805322899999999
Haarskamp 69,Ruurlo,52.0877807,6.455875499999999
Kastanjelaan 27,Lochem,52.16022359999999,6.4208636
Bladgroen 34,Zoetermeer,52.0424112,4.4948796
Willem-Alexanderstraat 24,Duiven,51.9522135,6.025861099999999
Bosstraat 3,Swalmen,51.2339462,6.0407984
Hoofdstraat 25,Sint Jansteen,51.2620348,4.051879899999999
Olieslagweg 96,Enschede,52.2315915,6.856811599999999
Douwelaan 2 C,Oentsjerk,53.2497512,5.898084
Karrevracht 6,Uden,51.6430549,5.616770499999999
Valeriusstraat 50,Almelo,52.3610349,6.6411799
Rederijkershoeve 115,Apeldoorn,52.1922358,6.0079027
Parkwijklaan 205,Almere,52.3706957,5.2545968
Weegbree 27,Gendringen,51.8746436,6.3736178
Max Havelaarburg 19,Capelle aan den IJssel,51.9478442,4.5785707
Ridder van Asenrodeweg 53,Roermond,51.1933535,6.0475125
De Nieuwesluis 15 b,Zwartsluis,52.6411156,6.076111399999999
Doornseweg 18,Langbroek,52.0122024,5.327191300000001
Schans 4,Oost-Souburg,51.4725665,3.6018895
Elzenlaan 4,Dordrecht,51.7933587,4.7049565
Willem de Zwijgerstraat 6,Nijverdal,52.367298,6.4563278
Pimpernelstraat 13,Utrecht,52.0886351,5.0619491
Margrietstraat 13,Wijchen,51.81070949999999,5.7352968
Alexandriet 4,Mijdrecht,52.2164317,4.860911799999999
Einsteinlaan 7,Pijnacker,52.0243273,4.4262367
Kerkstraat 25,Berghem,51.7690807,5.5674112
Anna Johanna van Nassaustraat 7,Vianen (UT),51.9869632,5.0726094
IJsselkade 24,IJsselstein,52.0196716,5.0497964
Wethouder Steinmetzstraat 37,Amsterdam,52.2952119,4.9953786
Brouwersdam 21,Hoofddorp,52.3133014,4.6353073
Voorstraat 6,Blije,53.3517672,5.860721499999999
Auroralaan 50,Apeldoorn,52.2117724,5.982734
Izak Osstraat 27,Zwolle,52.4996378,6.0840761
Landpaal 3,Huissen,51.94699689999999,5.9336746
Voirt 74,Nuenen,51.4720145,5.5378935
Willem Berkhemerstraat 1,Wageningen,51.9718765,5.650509
Markstraat 7,Dordrecht,51.8177568,4.6982373
Broekweg 17,Horst,51.4500851,6.0662066
Sternweg 2,Groet,52.7225804,4.6650526
Willem Claijstraat 15,Berkhout,52.64191899999999,5.0007299
Minoes erf 79,Capelle aan den IJssel,51.9514624,4.5755158
Herenstraat 69,Slagharen,52.6315295,6.5493353
Brasemlaan 4,Helmond,51.4613111,5.635258900000001
Vogelbos 33,Prinsenbeek,51.6051106,4.713299699999999
Hoofdspoor 6,Assendelft,52.49375,4.7536299
Zwolseweg 69,Balkbrug,52.6001723,6.3843397
Jachtlaan 320 A,Apeldoorn,52.2031891,5.9441733
Sluislaan 31,Moordrecht,51.986036,4.6690282
Violierstraat 35,Eindhoven,51.4222407,5.4917356
Het Aangelag 10,Bladel,51.3765487,5.2143203
St.-Elisabethstraat 80,Vught,51.6533384,5.2932743
Koningin Beatrixlaan 1,Leusden,52.1146833,5.4065522
Bosjeslaan 20,Vlissingen,51.4510763,3.5727302
Bierbrouwershorst 302,Apeldoorn,52.2064426,5.9856082
Eem 13,Nieuwerkerk aan den IJssel,51.95359500000001,4.6125732
Poststraat 20 D,Stadskanaal,52.99319329999999,6.9435842
Willem de Zwijgerlaan 177,Woudenberg,52.0790803,5.4255489
Reimersbeek 21,Amsterdam,52.3237947,4.878234
Holleweg 161,Heiloo,52.6011427,4.7031314
Hertogstraat 45,Brunssum,50.9462042,5.9594255
Victor Slingelandstraat 13,Oosterhout (NB),51.6507899,4.8408295
Corlaerstraat 20,Nijkerk,52.2133301,5.4707212
Boterbloemlaan 25,Vlissingen,51.4516307,3.5781287
Hogeweg 38 a,Oldelamer,52.8627482,5.9042658
Baflostraat 12,Arnhem,51.9515277,5.8988442
Lijnbaanstraat 24,Middelharnis,51.7602102,4.1588881
Leurinkstraat 18,Hengelo (OV),52.2516002,6.784572799999999
Sillebeekstraat 20,Valkenburg (LI),50.8685409,5.8399226
Minister Treubstraat 12,Enschede,52.2321113,6.883106799999999
Akkerstraat 6,Gilze,51.5430194,4.9506757
Sint Antoniushof 126,Oosterhout (NB),51.6387186,4.8691867
Apollostraat 46,Spijkenisse,51.8388034,4.3157425
Hunzedal 33,Borger,52.91862090000001,6.8021612
Beumeesweg 32 a,Alteveer (GR),53.0467113,7.016642099999999
Verremeer 93,Rijsenhout,52.26228,4.7159349
Voorzorgstraat 8,Haarlem,52.3806433,4.6212821
Oranjelaan Oostzijde 31,Puttershoek,51.8060138,4.570557
Aleidisstraat 9,Sprundel,51.5384104,4.592059
Anjerstraat 33,Ridderkerk,51.8663546,4.5912418
Dorpsstraat 17,Wijngaarden,51.8447657,4.7637287
Schalk Burgerstraat 11,Leeuwarden,53.2069384,5.792117699999999
Noordhoek Hegtstraat 81,Enschede,52.2258539,6.862033200000001
Kollermolen 35,Gennep,51.6939503,5.9883123
Rigoletto 21,Eindhoven,51.4906708,5.4777764
Zuideinde 86,Volendam,52.4923029,5.0711575
Veldkampsweg 36,Nijverdal,52.3583252,6.459297599999999
Lombokstraat 17,Dordrecht,51.8076321,4.679742
De Fruittuinen 3,Hoofddorp,52.2986988,4.6955643
Junolaan 4 b,Waddinxveen,52.03330889999999,4.655834100000001
Florastraat 59,Wormer,52.4970914,4.8047599
Beatrixstraat 20,Oeffelt,51.6977948,5.934857200000001
Achtererf 73,Tholen,51.532396,4.211264799999999
't Laar 2,Amersfoort,52.1891989,5.384473799999999
Havensingel 47,Eindhoven,51.4363719,5.4877558
Bosmuizenlaar 32,Bavel (Gem. Breda),51.5643626,4.816845799999999
Noordenveld 33,Assen,53.0058857,6.5486144
Kievitstraat 69,Neede,52.1337717,6.6024106
Piccolo 67,Rotterdam,51.9620681,4.5605362
Machteld Sandelijnslaan 36,Hendrik-Ido-Ambacht,51.8401047,4.6236248
Dorpsstraat 58,Halle,51.9899934,6.430096300000001
Frieseweg 55,Alkmaar,52.63508359999999,4.756132099999999
De Bleijdestraat 26,Rijssen,52.3051648,6.5129465
Hoogaars 12,Schiedam,51.9418371,4.3708551
Roelantstraat 25,Alkmaar,52.6147212,4.7496471
Iepenlaan 62,Duiven,51.9457525,6.0207902
Molendijk 4,Stad aan 't Haringvliet,51.7374962,4.2410752
Chrysantstraat 22,Utrecht,52.1013999,5.0950286
Marga Klompélaan 99,Rijen,51.58567559999999,4.930418899999999
Fluitersweg 40,Wenum Wiesel,52.2438198,5.961373
Bodenheimstraat 5,Ede,52.0231296,5.6652245
Ruth Firststraat 40,Purmerend,52.4891679,4.9586519
Het Boschloo 13,Warnsveld,52.1308261,6.2381549
Torenstraat 75,Castricum,52.5507711,4.6641812
Bûterblom-strjitte 28,Kootstertille,53.21312529999999,6.0954551
Pastoor van Winkelstraat 23,Schaijk,51.7464142,5.6348603
Mastgatstraat 16,Middelburg,51.4887076,3.6008765
Meerboomweg 10,Hollandscheveld,52.709221,6.56882
Bloemstraat 84,IJmuiden,52.4609792,4.5957833
Magelerweg 44,Den Ham (OV),52.4684228,6.4969395
Engelbeemd 3,Herpen,51.773771,5.638285
Schubertstraat 24,Numansdorp,51.7351766,4.43593
Bosserdijk 12,Hoogland,52.18609590000001,5.3770399
Erf 23,Gemert,51.5552886,5.690366
Koningshof 2,Rijpwetering,52.1886745,4.5865231
Bareveld 5,Marum,53.13088279999999,6.240376599999999
Willem Weysingel 38,Pernis Rotterdam,51.8863712,4.386309
Heivlinderlaan 14,Culemborg,51.9451596,5.2028273
Sternstraat 24,Purmerend,52.5202192,4.958228699999999
Voorstraat 124,Noordwijk (ZH),52.231176,4.4456315
Dorpsstraat 5,Ees,52.9091129,6.805351399999999
Lange acker 74,Heemskerk,52.5014511,4.6594489
Tolsestraat 1,Opheusden,51.9299252,5.6373406
Boomstraat 61,Gemonde,51.6173091,5.3530194
Pastoor van der Meijdenstraat 21,Rosmalen,51.7190638,5.3691635
Jasykoffstraat 24,Zaandam,52.4376045,4.8188097
De Lits 14,Leeuwarden,53.1863191,5.833176
Rupelstraat 41,Helmond,51.4619936,5.700372799999999
Merellaan 168,Capelle aan den IJssel,51.929758,4.5806849
Herman Gorterstraat 26,Haarlem,52.4072959,4.635849299999999
Kruidendreef 74,Dronten,52.5090673,5.718448299999999
Zwarteweg 17,Aerdenhout,52.363421,4.5864996
Korte Water 143,Amsterdam,52.3533583,4.7885142
Rijksstraatweg 28,Buurmalsen (Gem. West Betuwe),51.8920903,5.2952465
Ekster 2,Hoogvliet Rotterdam,51.856296,4.377782
Salamanderveen 315,Spijkenisse,51.8335789,4.336975
Van der Waalsstraat 4,Geleen,50.9535353,5.821269399999999
Mahatma Ghandhihof 14,Zaandam,52.435229,4.807153
Seringenstraat 4,Eerbeek,52.1015898,6.0518922
Tartinistraat 18,Eindhoven,51.4226332,5.463324699999999
Havercamplaan 9,Heiloo,52.5953084,4.6992812
Abersland 2713,Wijchen,51.7984628,5.719774
Nijendal 1,Driebergen-Rijsenburg,52.0581596,5.2698684
Haaldersbroekerdwarsstraat 9,Zaandam,52.4733001,4.827756
Sint Radboudstraat 22,Amersfoort,52.1523893,5.395512
Poolster 9,Klazienaveen,52.7305174,6.988668
Lingestraat 29,Assen,53.0014596,6.5369955
Aalsburg 1424,Wijchen,51.807481,5.714289099999999
Oostblok 41,Wateringen,52.02219419999999,4.281089
Rivierdijk 327,Sliedrecht,51.81980919999999,4.7939196
Marokkostraat 167,Alphen aan den Rijn,52.1206773,4.6458888
Noorderstraat 20,Winschoten,53.1439871,7.0304441
Elandhof 79,Winschoten,53.15480849999999,7.0301694
Spinbolmolen 34,Papendrecht,51.8411225,4.6960942
Manegelaan 13,Hoofddorp,52.3071394,4.6930469
Kerklaan 2,Vlissingen,51.4659465,3.593279899999999
Scheijbeecklaan 22,Beverwijk,52.4815346,4.6486352
Hof van Rome 87,Doetinchem,51.9558142,6.2665755
Leisteen 28,Houten,52.0142653,5.1786275
Annie M.G. Schmidtlaan 22,Gorinchem,51.8339345,5.0017193
Ottersumseweg 24,Gennep,51.7055521,5.975616899999999
Venussingel 39,Heerhugowaard,52.6694846,4.8334206
Westerdiep 20,Dordrecht,51.8143636,4.7171727
Valeriuslaan 10,Doorwerth,51.9823195,5.7993497
Beukestraat 3,Krommenie,52.49594099999999,4.7594807
Hoge Dijkje 12,Nijverdal,52.3626215,6.4713711
Keizer 7,Wijk bij Duurstede,51.9756003,5.338449499999999
Kennemerland 73,Assen,52.9792099,6.5381877
Boompjesweg 4,Landhorst,51.6373095,5.7853737
Ruinerbrink 178,Emmen,52.7637574,6.8851643
De Buorren 29,Lippenhuizen,53.0166976,6.0864205
Vriezenveenseweg 145,Almelo,52.3710329,6.667185799999999
Vloed 18,Breda,51.5711281,4.739427399999999
Valeriaanweg 121,Utrecht,52.089869,5.073011
Vincent van Goghlaan 25,Vleuten,52.112509,5.018091999999999
Pastoriedijk 120,Pernis Rotterdam,51.8897269,4.3946478
Herderstraat 15,Zaandam,52.4501181,4.8235563
Rubenslaan 161,Bergschenhoek,51.9948783,4.5046842
Dorsvlegelweide 27,Nieuwegein,52.04970789999999,5.070865299999999
De Kist 24,Elst (GE),51.9210309,5.840228499999999
Kapellestraat 2,Oudewater,52.0221093,4.8724615
Hogekamp 9,Oldebroek,52.442045,5.890644
Chamonixlaan 11,Eindhoven,51.48596089999999,5.4483105
Kerkstraat 3,Nieuwkuijk,51.69152889999999,5.1775861
Brigantijn 9,Woerden,52.0785646,4.8569798
Dorpsstraat 998,Assendelft,52.4910213,4.7617874
Boternesserstraat 26 C,Weesp,52.3118856,5.0323766
Langemoor 4,Nieuw-Vennep,52.2640131,4.6149267
Houtrakgracht 181,Utrecht,52.0854361,5.0544728
Rijssensestraat 122,Nijverdal,52.358745,6.4628779
Dorpsstraat 130,Wormer,52.4996618,4.8185988
Muiderslot 39,Amersfoort,52.176427,5.390222500000001
Appelaarsedijk 18,Fijnaart,51.6268656,4.4460035
Narcisstraat 16,Swifterbant,52.5670021,5.639033299999999
Bremstraat 51,Arnhem,51.9886067,5.8816663
Luilaantje 39,Egmond-Binnen,52.5991595,4.6568124
Schansweg 23,Geertruidenberg,51.7008571,4.845660899999999
Franseweg 66 a,Elst (UT),51.9879417,5.5024612
Reinettehof 7,Maurik,51.9581665,5.422118999999999
Zuidende 63,Helmond,51.4792422,5.6599492
Hoge Hofstraat 4,Dodewaard,51.909355,5.6539994
Wolvespoor 11,Etten-Leur,51.5750646,4.6249803
Dullemansstukken 21,Eelde,53.1409219,6.5559238
Constantijnstraat 35,Vroomshoop,52.45535959999999,6.560573
Cuyleborg 222,Maastricht,50.8241186,5.7267495
Punter 45 10,Lelystad,52.5177542,5.445049
Kersentuin 19,Heerjansdam,51.8349501,4.5610044
Rabouw 32,Helden,51.3251396,5.997086299999999
Lange Weide 126,Breda,51.6083341,4.8054924
Rosanderwaard 47,Capelle aan den IJssel,51.9351517,4.6142384
Witbol 22,Kampen,52.5539459,5.9020316
Donkereweg 3,Heerhugowaard,52.6991382,4.8598019
Braamkamp 183,Zutphen,52.12171739999999,6.2053826
Hessenweg 32,Ede,52.0687535,5.686775
Leeuweriklaan 20,Hoogeveen,52.7151621,6.5005479
Julianastraat 7,Den Bommel,51.7167652,4.2849151
Bellatrixstraat 30,IJmuiden,52.4509681,4.593285
Prins Bernhardstraat 56,Leeuwarden,53.1871307,5.791276
Kampakkers 30,Borger,52.9312336,6.7942285
Büllerlaan 121,Beverwijk,52.4951873,4.6647741
Blauwkapel 76,Gorinchem,51.831654,5.012621
De Dieze 51 A,Goirle,51.5263484,5.0475913
J.W. Schuurmanstraat 49,Domburg,51.5612585,3.5015987
van Goyenstraat 5,Heemskerk,52.5076486,4.6666852
Bakhuizen van den Brinkhof 19,Amsterdam,52.3625778,4.823383
Pieter acker 12,Heemskerk,52.5049226,4.6646024
Klifrakplantsoen 180,Utrecht,52.0853768,5.057758300000001
Molenplaatsweg 5,Borger,52.9301452,6.7943007
Prins Clausstraat 92,Hoensbroek,50.90731580000001,5.931398799999999
Krelis Annesstraat 40,Oudebildtzijl,53.3028298,5.7206109
Zellersacker 2101,Nijmegen,51.8347109,5.7849455
Molenstraat 104,Apeldoorn,52.2121618,5.9779611
Morgenster 15,Elst (GE),51.9223416,5.8570129
Berkenhof 10,Sliedrecht,51.8249731,4.760431899999999
Sint Janstraat 106,Sprundel,51.5388406,4.6078714
Pallasstraat 176,Emmeloord,52.7042762,5.742789699999999
Kleine Molenstraat 29,Elst (GE),51.9202896,5.8435402
Gaandeweg 28,Amsterdam,52.3219313,4.9804561
Waverbancken 63,Vinkeveen,52.2092932,4.9222661
3e Kekerstraat 59,Amsterdam,52.3129503,4.9799606
Walingsdijk 27,Ursem (Gem. Koggenland),52.6239849,4.894104899999999
Usselerveenweg 303,Enschede,52.16906969999999,6.8655933
Vesting 23,Wijk bij Duurstede,51.9723523,5.3340572
Marijkeweg 15,Vaassen,52.2870158,5.965198399999999
Trilgras 8,De Goorn,52.6284636,4.950957499999999
Waterpoort 26,Heusden (Gem. Heusden),51.7355301,5.1395351
Maartenskreek 5,Willemstad,51.6859349,4.4448325
Neptunusstraat 14,Rosmalen,51.71841190000001,5.3481364
Landregtstraat 10,Vlissingen,51.46619760000001,3.5901445
Malachietgroen 19,Zoetermeer,52.0376614,4.4894738
van Voorststraat 13 b,Huissen,51.9382859,5.9376107
Catswende 11,Hillegom,52.2855426,4.5870572
Catswende 13,Hillegom,52.2856293,4.5869687
Adriaen van Ostadelaan 2,Waalre,51.3836381,5.440923000000001
Breeweg 56,Middelburg,51.4955761,3.599402299999999
Parklaan 9,Prinsenbeek,51.6020475,4.716714
Tichlerstraat 9,IJsselmuiden,52.5668345,5.9342166
Steenhuisstraat 10,Vlissingen,51.4497325,3.5669369
Minister van Houtenstraat 9,Veghel,51.6124148,5.5522203
Martinusweg 2,Herwen,51.8848237,6.1000177
Overgouw 111,Almere,52.3463451,5.216708
Kaaplandstraat 55 A,Nijmegen,51.832014,5.82755
Het Bleekveld 8,Hardenberg,52.57304019999999,6.639565699999999
Henrik Ibsenstraat 14,Zuid-Beijerland,51.7543915,4.3206263
Citerlaan 18,Nieuwegein,52.0428034,5.0830324
Texashof 4,IJsselstein,52.0089814,5.0403423
Westeinde 164,Nieuwleusen,52.5606304,6.247076799999999
Freulepark 66,Zutphen,52.12638459999999,6.2313574
Batalaan 2 c,Best,51.4918978,5.3973893
Vosweide 60,Apeldoorn,52.218154,6.002382
Alexander Dubcekweg 167,Assen,53.0241918,6.5909241
Het Erf 19,Bovenkarspel,52.6995941,5.233094599999999
Lanciersstraat 43,Tilburg,51.5536712,5.0972944
Elspeterbos 50,Hoofddorp,52.3118762,4.6569931
Koereiger 10,Emmen,52.7421918,6.8803922
Herman Heijermanslaan 14,Heemstede,52.3589122,4.6089551
Pieter Aertsenstraat 8,Meppel,52.6855825,6.183152799999999
De Buiskap 4,Dronten,52.5170438,5.7270502
2e Berkendijk 2,Hengelo (GE),52.0434382,6.3586277
Conradstraat 15,Zaandam,52.4298707,4.8352279
Corbulopad 14,De Meern,52.0840532,5.0236298
Touwslagerlaan 4,Aalsmeer,52.2720193,4.754339499999999
Tuin van Gerlagh 20,Hoeven,51.5803593,4.585007399999999
Chinesetuinlaan 10,Vleuten,52.087764,5.015811999999999
De Bovenkruier 14,Klazienaveen,52.7198705,6.9875037
Schimmelpenninckstraat 18,Veenendaal,52.0145004,5.5377784
Verlengde Parkweg 58,Ede,52.0266835,5.6547642
Geert van Woustraat 19,Denekamp,52.3714939,7.0050155
Elstweg 30,Beers,51.72539,5.818693199999999
Apollostraat 9,Aalsmeer,52.2531614,4.7596592
Albert Cuyplaan 57,Haaksbergen,52.1599333,6.727356899999999
Swammerdamstraat 15,Terneuzen,51.3321503,3.8534918
Wijsthoek 523,Uden,51.6659263,5.6341798
Hoefbladstraat 7,Krommenie,52.5074732,4.762311599999999
Sophialaan 1 A,Wassenaar,52.1203844,4.3622923
Papaverstraat 10,Alkmaar,52.6400553,4.741688799999999
Kleine Wielenpad 7,Almere,52.3884301,5.2293216
Koningin Wilhelminastraat 88 A,Reeuwijk,52.0455914,4.7220572
Damstraat 16,Hardinxveld-Giessendam,51.8298255,4.836382400000001
Papiermakerserf 123,Eerbeek,52.1095238,6.0609326
Bronneberg 27,Herkenbosch,51.1574932,6.072506799999999
Bongerd 25,Malden,51.780578,5.8577226
Fontein Verschuirstraat 12,Alkmaar,52.6237254,4.7395684
De Ruyterstraat 114,IJmuiden,52.4618696,4.6205907
Het Bosje 14,Elst (UT),51.9867374,5.494088899999999
Hekkerdreef 58,Leusden,52.1217208,5.4103778
Lieuwe Jellingastrjitte 51,Britsum,53.2528996,5.78393
Damstraat 13,Ridderkerk,51.8544879,4.641466700000001
Sportlaan 5,Bleiswijk,52.0126634,4.528474399999999
Prins Bernhardstraat 31,Nijverdal,52.3595268,6.471467
Haveloozeweg 4,Dirksland,51.74221499999999,4.107380099999999
het Egbertink 72,Losser,52.25730309999999,6.9993989
Alex van Strienstraat 2,Culemborg,51.948967,5.199733
Molièrelaan 29,Eindhoven,51.48797130000001,5.4718481
Roggelelie 4,Gieten,52.9960449,6.769004799999999
Het Zwanevlot 105,Zutphen,52.1256296,6.2040149
Hofhooistraat 17,Dreumel,51.85135289999999,5.4356486
Schavenmolenstraat 15,Arnhem,51.98435449999999,5.9252728
Victor de Stuerslaan 7,Arnhem,52.0016495,5.937356599999999
Het Meuke 35,Haaksbergen,52.1544465,6.737367900000001
Wilgenlaan 53,Etten-Leur,51.5836187,4.655808899999999
Grote Haarsekade 53,Gorinchem,51.8417139,4.970428
Het Roefje 14,Hoogeveen,52.7146025,6.4395798
Oosterbrink 14,Oosterwolde (FR),52.9969471,6.3011599
Pieter Langendijkstraat 43,Alkmaar,52.6157542,4.7469606
Lagewoud 4,Ede,52.04819879999999,5.629656499999999
De Gasperilaan 5,Doetinchem,51.9547728,6.2586641
Beckumerstraat 48,Hengelo (OV),52.25827469999999,6.7838746
Popart 41,Dronten,52.535985,5.682303999999999
de Brink 18,Raalte,52.379711,6.262206399999999
Baanhoek 245,Sliedrecht,51.8239657,4.7453044
Wilhelminastraat 43,Huissen,51.9338692,5.935765099999999
Helena Merciertuin 28,Heerhugowaard,52.6489071,4.8225295
Oude Schuttingkanaal WZ 57,Roswinkel,52.8374212,7.0180559
Gudumholm 8,Hoofddorp,52.31375329999999,4.6701004
Hofakkers 2,Westerbork,52.8500559,6.6182333
Kruizemuntstraat 28 A,Apeldoorn,52.21709449999999,5.9878097
Ulsheggerweg 30,Lottum,51.4636776,6.158246
De Velde 13,Zwartsluis,52.62152520000001,6.0895828
Prinsensteeg 13,Schiedam,51.91821419999999,4.395760399999999
Schoolstraat 22,Koewacht,51.2264034,3.9739817
Stoofstraat 34,Poortvliet,51.5429003,4.1405593
Kroeskarperlaan 7,Voorhout,52.22594429999999,4.494587
Nieuwstad 30,Gorinchem,51.828515,4.9708782
Hoedekenskerkestraat 34,Arnhem,51.9478617,5.8651823
Meidoornlaan 8,Lopik,51.9738832,4.952406799999999
Vinkenbroek 94,Etten-Leur,51.5911633,4.6538613
Langsweg 1 A,Dalmsholte,52.46557,6.3438572
Langsweg 1,Dalmsholte,52.46557,6.3438572
Uranusstraat 4,Dongen,51.6256602,4.919599499999999
Langezand 57,Lelystad,52.5255309,5.494376099999999
Pauwenkamp 47,Maarssen,52.134543,5.0235568
Molenlaan 6,Rijswijk (ZH),52.0541581,4.3435619
Groot-Bijgaardenlaan 36,Eindhoven,51.4794346,5.4884933
Bredeweg 363,Roermond,51.1873301,6.001867
Emmerstraat 20,Noord-Sleen,52.787637,6.817107
Achterstraat 4,Den Bosch,51.7191083,5.2733371
Winterswijkseweg 59,Groenlo,52.0124238,6.6476893
J.H. Leopoldstraat 16,Almere,52.3578117,5.177055699999999
Reigersbek 9,Purmerend,52.4967953,4.952243
Kalverkamp 1,Leusden,52.14080939999999,5.4337968
Ekelshoek 3,Blaricum,52.27450469999999,5.2537078
Lage Ham 154,Dongen,51.6407919,4.9309698
De Wildbaan 20,Ootmarsum,52.4029456,6.8997394
Aletta Jacobslaan 22 .,Tiel,51.8877181,5.416646
Mijnspoor 12,Houten,52.0211178,5.1796373
Hogeweg 100,Limmen,52.5738514,4.689016899999999
Merlijnshof 30,Prinsenbeek,51.6040104,4.7122182
Roemer Visscherstraat 8,Alkmaar,52.626945,4.7407787
Vossenweg 1,Bennekom,52.0080622,5.6754514
Welle 2 C,Koudekerke,51.4823947,3.5544021
Parallelweg 12,Gorssel,52.2074984,6.198230100000001
Molenstraat 17,Zuidhorn,53.2445547,6.405206100000001
Duizendschoon 35,Rijnsburg,52.1967167,4.4308293
Caspar Fagellaan 6,Rotterdam,51.9468164,4.480356599999999
Pijlkruidstraat 37,Berkel en Rodenrijs,51.9894208,4.4684268
Ruys de Beerenbrouckplein 127,Oosterhout (NB),51.63194799999999,4.868480000000001
Staringkade 42,Leiden,52.1550647,4.4756201
Jessicagang 70,Zoetermeer,52.0421986,4.4811273
Noorddonk 83,Steenbergen (NB),51.5921951,4.3259373
Archipel 15 59,Lelystad,52.5089125,5.4850578
Waalstraat 31,Winschoten,53.1336634,7.0271563
Vlinderslag 20,Almkerk,51.769284,4.9495336
Schierstins 12,Lelystad,52.4986937,5.5081722
Nieuwe Vlissingseweg 604,Middelburg,51.478293,3.5997406
Prinses Beatrixweg 13,Geldermalsen,51.8839723,5.302427
IJsbaanstraat 9,Zutphen,52.1477472,6.210524299999999
Buurschappenlaan 240,Den Bosch,51.7284296,5.3071152
Burgemeester van Roosmalenstraat 19,Uitgeest,52.5199036,4.707879699999999
Laan van Meerdervoort 405,Den Haag,52.0770426,4.2717803
Muntstraat 5,Elburg,52.4458051,5.8650169
Rietgors 97,IJsselmuiden,52.56908019999999,5.9424186
Meyrooslaan 43,Arnhem,51.9851034,5.898729599999999
Johannis Bogaardstraat 25,Nieuw-Vennep,52.2646433,4.6259396
Brahmsstraat 69,Capelle aan den IJssel,51.919781,4.5638559
Ivanovschouw 1,Zoetermeer,52.0670405,4.4945903
Beekstraat 5,Toldijk,52.0428979,6.2273215
J. Kruijverstraat 89,Zaandam,52.45065580000001,4.799042000000001
Konijnenweide 50,Zoetermeer,52.0718407,4.51338
Ericaplein 2,Eibergen,52.0949447,6.6398566
Vuurbloem 1,Leiden,52.1774598,4.5128468
Liechtensteinhof 27,Dordrecht,51.7927177,4.7278987
Abe Bonnemastraat 11,Bergschenhoek,51.989897,4.486161099999999
Gravinnendreef 41,Den Haag,52.0341993,4.2615339
Van Harenlaan 11,Alkmaar,52.61788809999999,4.7453688
Pieter Bothstraat 26,Enschede,52.2109798,6.911337
J.A. Zandlevenstraat 24,Zaandam,52.44920210000001,4.799386699999999
Woudakker 6,Noord-Scharwoude,52.6980106,4.804489999999999
Gildenlaan 363 c,Velsen-Noord,52.4766779,4.6426338
Hielbijl 59,Oosterhout (NB),51.6486224,4.831366399999999
Berghuisstraat 3,Beverwijk,52.4889564,4.655227099999999
Anton Koolhaaspad 6,Arnhem,51.9375947,5.900047799999999
Zevenbergenstraat 13,Eindhoven,51.43898799999999,5.436926199999999
Valkseweg 48,Barneveld,52.13467199999999,5.5971744
Maastrichterweg 62 64,Valkenswaard,51.3427889,5.4575724
Willem de Zwijgerlaan 61,Kaatsheuvel,51.6575577,5.02591
Plantage 174,Beverwijk,52.4907936,4.647782299999999
Vaartweg 16,Dongen,51.6491249,4.9598375
Prins Alexandererf 43,Nunspeet,52.382106,5.7759433
Oud-Ehrenstein 12,Amsterdam,52.3239795,4.8759871
Schutsboom 51,Schijndel,51.6242344,5.4211718
Hertenhoek 18,Prinsenbeek,51.5954512,4.7216589
Kanaaldijk 126,Koedijk (Gem. Alkmaar),52.6775568,4.7476078
Sterappelhof 10,Zoetermeer,52.0711727,4.5202044
Marijkestraat 6,Landgraaf,50.9069991,6.0370472
Bilderdijkstraat 5,Zutphen,52.1396512,6.210776699999999
Strohulzen 28,Boxtel,51.5917165,5.310632
Bikkeldam 24,Horssen,51.8533398,5.605828799999999
Granaat 11,Eindhoven,51.48729840000001,5.4664513
Jacob Marisstraat 10,Zwijndrecht,51.8186323,4.6389273
Nico Kolenbergstraat 15,Lutjebroek,52.699396,5.2088207
De Schokker 18,Egmond aan Zee,52.62238,4.6319791
Molenstraat 21,Oudenbosch,51.5881728,4.524139799999999
Kloeckenmorgen 13,Westervoort,51.9467082,5.9693001
IJsvogel 17,Lathum,51.99363719999999,6.0440526
Westerdokstraat 7,Almelo,52.3605399,6.6595884
Jenniskensstraat 10,Vierlingsbeek,51.5956118,6.0047207
Steeneikzoom 4,Zoetermeer,52.0415025,4.4664096
Oeverstraat 36 -38,Rotterdam,51.91161,4.493096599999999
Peelseloop 5,Heesch,51.7312589,5.541618
Vrijheidslaan 66,Breukelen,52.1832541,4.999115799999999
Sixmastins 26,Stiens,53.2549655,5.770292299999999
Fazant 5,Doorn,52.0346547,5.3456721
Joh Poststraat 24,Nieuwlande,52.70156919999999,6.6097718
Albastdijk 69,Roosendaal,51.522499,4.482181
Sevenumse Dijk 17,Maasbree,51.3700418,6.0305233
Isabellagriend 1,Herten,51.177036,5.9540166
Heer Halewijnpad 10,Amersfoort,52.1705063,5.3805386
George Gershwinstraat 98,Zaandijk,52.47556909999999,4.7955236
Schoolstraat 41,Zutphen,52.1422848,6.1813552
Lopikerweg oost 163 b,Lopikerkapel,51.99172739999999,5.0435656
Delhoevelaan 2,Rozendaal,52.0019772,5.960528999999999
Simon Vestdijklaan 6,Amstelveen,52.2735612,4.8268977
Beryldreef 23,Emmen,52.7327063,6.914049899999999
De Klencke 22,Zuidlaren,53.0785079,6.699961999999999
Laan van Avant-Garde 316,Rotterdam,51.9773861,4.5901711
Fluweelmos 25,Houten,52.01376459999999,5.1918882
Britsezoom 50,Nieuwerkerk aan den IJssel,51.9633396,4.598960000000001
Hooistraat 22,Tilburg,51.5535344,5.0726444
Koningin Wilhelminalaan 46,Naarden,52.2899504,5.1527002
Saxofoonweg 89,Almere,52.374526,5.1827282
Berghallee 9,Duiven,51.9397137,6.0279618
Veldhofstraat 168,Eygelshoven,50.889639,6.0668343
Duivenhorst 7,Den Dolder,52.141018,5.242023
De Beukenhaag 8,Zutphen,52.1248091,6.2377408
Jan Kortlandstraat 21,Schoonhoven,51.9481323,4.8522843
Emmastraat 71,Lekkerkerk,51.8995547,4.687775999999999
Beukenlaan 43,Oud Gastel,51.5901633,4.461440899999999
St. Janstraat 14,Hoeven,51.580289,4.5878611
Pelzerpark 33,Epe,52.3532671,5.9795256
Tiendvrij 5,Leusden,52.1390208,5.4358512
Pasbrink 68,Winterswijk,51.9800192,6.7138407
Oud-Loosdrechtsedijk 226 a,Loosdrecht,52.207401,5.077135699999999
Markkant 51,Oosterhout (NB),51.6467709,4.8312284
Burgwal 79,Kampen,52.5578483,5.9145807
Dopheide 32,Amersfoort,52.1913932,5.3917592
Breedelaan 131,Heiloo,52.5951505,4.7024713
Burgemeester Janssenstraat 12,Venray,51.5289362,5.968962299999999
Leidekkersgilde 18,Houten,52.02996479999999,5.1775254
van der Leckstraat 5,Duiven,51.9521747,6.0072613
Arthur Sullivanhof 20,Utrecht,52.1070802,5.036073
Eikenlaan 9,Bunde,50.89360610000001,5.733755299999999
Tulpstraat 14,Sint-Oedenrode,51.5509297,5.4818391
Vermeerstraat 14,Amersfoort,52.14988409999999,5.3921122
Foxel 33,Emmer-Compascuum,52.7894427,7.0210172
Aaldersbeeklaan 99,Dinxperlo,51.8680476,6.4897526
Eikenlaan 14,Leiderdorp,52.15053839999999,4.5240629
Fioringras 20,Leeuwarden,53.1844791,5.809530700000001
De Rosmolen 108,Westervoort,51.9438744,5.979362699999999
Achter de Gracht 3,Huissen,51.9357292,5.9406087
Mollekade 15,Heinenoord,51.8167548,4.510454699999999
Vicarielaan 79,IJsselstein,52.0211872,5.0376499
Ben Goerionsingel 24,Ede,52.0176749,5.641632299999999
Gitaarhof 8,Etten-Leur,51.5589244,4.630334899999999
Ruggeweg 12,Brielle,51.89883469999999,4.1553166
Weersterweg 11,Wons,53.08332919999999,5.4254486
Meireweikes 22,Oud Gastel,51.5914121,4.4613577
Korenmolenweg 10,Haaksbergen,52.139398,6.7318362
Noordersingel 7,Barendrecht,51.8547968,4.496325199999999
Rozenplantsoen 10,Moordrecht,51.9895866,4.6735555
Vlinderveen 574,Spijkenisse,51.83324380000001,4.3427
Cato Elderinklaan 20,Almelo,52.3718923,6.662879299999999
Händelstraat 27,Aalsmeer,52.250804,4.7675556
Paulusstraat 12,Deest,51.88904280000001,5.6630289
William Barlowlaan 153,Amsterdam,52.3606546,4.9797178
Winckelweg 8,Nunspeet,52.3751688,5.7802014
Anjerstraat 5,Papendrecht,51.8287878,4.6922317
Vlielandstraat 29,Zaandam,52.4530876,4.8070655
Provincienlaan 53,Veendam,53.0935838,6.863192000000001
Astersingel 23,Berkel en Rodenrijs,51.9816078,4.466571399999999
Ambachtsstraat 34,Veenendaal,52.01594739999999,5.553093899999999
Thijs Rinsemastraat 47,Drachten,53.10374770000001,6.0556627
Kienderkamp 31,Harderwijk,52.3506609,5.649587899999999
Kervelstraat 27,Arnhem,51.9640115,5.9199428
Rialaan 40,Oostvoorne,51.91293289999999,4.0971611
Van der Hoevensstraat 97,Westervoort,51.9558776,5.967008
Wallestein 5,Loenen aan de Vecht,52.2147085,5.0281825
Uelserweg 38,Tubbergen,52.4100352,6.785939399999999
Lijsterbeslaan 6,Bunde,50.890459,5.7371778
Annie Romeinsingel 52,Leiden,52.14570089999999,4.4535905
T.S. Eliotlaan 8,Den Haag,52.0378753,4.2296116
Boswei 8,Stavenisse,51.5854892,4.0165725
Adelaartlaan 136,Geldrop,51.41622539999999,5.5690696
Herman Kuijkstraat 16,Geldermalsen,51.8825911,5.286086699999999
Schoutstraat 19,IJsselmuiden,52.56648070000001,5.9295902
Hellasstraat 3,Purmerend,52.5163799,4.9661013
Julianalaan 18,Nieuwer Ter Aa,52.1896902,4.978917699999999
Jan Hoenlaan 6,Montfoort,52.05118410000001,4.9551737
Beekdal 41,Vianen (NB),51.7176221,5.8609936
Noorderberg 3,Egmond aan Zee,52.6195473,4.6244608
Pastoriepad 21,Hapert,51.3687891,5.2515109
van Swietenstraat 8,Helmond,51.4808568,5.6384473
Vosmaerstraat 12,Arnhem,51.99476319999999,5.9474409
Jagersberg 22,Roosendaal,51.5073199,4.4349676
Schoolstraat 70,Geerdijk,52.4767691,6.5715968
Brugakker 6001,Zeist,52.08580079999999,5.2082473
Leenderweg 65,Valkenswaard,51.3522967,5.466218800000001
Veldweg 37,Nunspeet,52.3747364,5.7910989
Lepelaar 61,Meppel,52.6942303,6.2265827
Begoniastraat 23,Zwolle,52.5014005,6.1060496
Goudplevierstraat 97,Zwolle,52.539804,6.0643197
Elzenhage 6,Meppel,52.6982329,6.2128622
Venusstraat 12,Leiden,52.14788530000001,4.5122602
Stationspark 26,Veendam,53.1060996,6.884759499999999
Rostockstraat 144,Lelystad,52.5097576,5.4689996
Ste Bernaertsstraat 30,Oudenbosch,51.5887057,4.5323569
Markeboek 26,Ommen,52.531295,6.442590999999999
Van Hogelandestraat 2,Den Haag,52.0725987,4.311823
Roemer Visscherstraat 29,Alblasserdam,51.8667642,4.6715171
Krulmos 18,Nieuwerkerk aan den IJssel,51.9716494,4.6141494
Marterweide 54,Nieuwegein,52.0439474,5.0757473
Oostzijde 37,Zaandam,52.4418447,4.8253324
Hoofdweg 6,Echten (FR),52.8730966,5.797541799999999
Hagenaarpark 48,Maasbracht,51.1398161,5.892682199999999
Hoofdstraat 1,Borger,52.9273891,6.7900754
Henriette Polaklaan 80,Zutphen,52.1283728,6.2323065
President Steijnstraat 43,Tilburg,51.54660029999999,5.0799419
Stoombootweg 62,Amsterdam,52.4180727,4.9020112
Kastanjelaan 14,Lochem,52.1601874,6.4198396
Halvenne 40,Leende,51.355366,5.5555416
Glauconiet 9,Deest,51.8861634,5.6703407
Grote Drift 30,Beilen,52.860736,6.5052704
Adriaan Loosjesstraat 71,Haarlem,52.3784368,4.6520398
Dorpsstraat 62,Dirkshorn,52.7458302,4.7781334
Patrimoniumlaan 87,Veenendaal,52.0196818,5.542979799999999
Sportlaan 59,Wissenkerke,51.5824161,3.7453875
Lindenlaan 2,Bergen (LI),52.6744922,4.696065700000001
Lindenlaan 27,Terneuzen,51.3252104,3.8350128
Van Polanenpark 22,Wassenaar,52.1497784,4.4047029
Jaagpad 51,Etten-Leur,51.59226409999999,4.6546747
Kamerlingh Onnesstraat 67,Apeldoorn,52.2345357,5.9688922
Lage Engweg 31,Putten,52.2534766,5.603144899999999
Grashoen 114,Eindhoven,51.4404159,5.4131883
Buitenroede 23,Smilde,52.9541124,6.4555126
Jan van Eyckstraat 21,Almere,52.3851179,5.2475502
Calagneweg 2,Ovezande,51.4352197,3.8164933
De Eiken 20,Steenderen,52.06491579999999,6.1793453
Silvoldseweg 105,Terborg,51.91822250000001,6.3721644
Leimuiderdijk 356,Leimuiderbrug,52.2325805,4.672378300000001
Saturnusstraat 26,Purmerend,52.5076178,4.9591359
Primulastraat 16,Woerden,52.08311610000001,4.876941299999999
Marisstraat 55,Duiven,51.9508149,6.003524199999999
Monnikenstraat 13,IJsselmuiden,52.563089,5.9546202
Irene Vorrinkland 12,Heerhugowaard,52.6462359,4.8236444
Rozenstraat 73 a,Didam,51.9449839,6.1359923
Sportlaan 38,Udenhout,51.6044165,5.1451707
Vondersestraat 39,Horst,51.4556319,6.0602763
Roode Kruisstraat 9,Benthuizen,52.0764253,4.5439207
Westkreek 15,Apeldoorn,52.2152782,6.0095931
Jan Frederik Helmersstraat 18,Haarlem,52.3805814,4.6542096
Greppelland 22,Nijkerk,52.2146183,5.4711059
Gestelsestraat 18,Eindhoven,51.4328544,5.4720309
Wolferinghaar 5,Emmen,52.7565061,6.8508743
Irislaan 14,De Kwakel,52.2394684,4.786535
Jipsingboertangerweg 37,Sellingen,52.96714189999999,7.10957
Burgemeester Vrieslaan 17,Goudswaard,51.7930445,4.280082699999999
Ypesteinerlaan 48,Heiloo,52.5932495,4.7123003
Nassaulaan 18,Haarlem,52.3830324,4.6326596
Wagnerstraat 8,Dongen,51.634011,4.9229049
Doude van Troostwijkstraat 6,Nieuwer Ter Aa,52.1903255,4.9813502
Rotterdamsingel 56,Arnhem,51.9591122,5.862874000000001
Wijnsel 12,Geldrop,51.4300663,5.560427
Walraven van Hallstraat 16,Zaandam,52.4391392,4.8371122
Kleinmansbeek 16,Barneveld,52.1273293,5.572503900000001
Stuwmeer 52,Houten,52.02365200000001,5.193457
Biatlon 25,Assendelft,52.4870604,4.7560638
Gebr. Aartspad 4,Hilvarenbeek,51.4891149,5.1278203
Schipleisingel 50,Druten,51.8808872,5.6093237
Montgolfierstraat 2 C,Helmond,51.479545,5.6831521
Bruinhorst 26,Leusden,52.1325435,5.4248556
Rubensstraat 37,Breda,51.5802335,4.7628118
Zijpseloop 6,Heesch,51.7316045,5.5428312
Anjerstraat 46,Steenbergen (NB),51.5787719,4.3174503
Schumannlaan 15,Enschede,52.2394036,6.876817099999999
Mendelssohnstraat 17,Capelle aan den IJssel,51.9186732,4.5641311
Kamerlingh Onnesweg 1,Hilversum,52.2225608,5.194097
Heideweg 1,Soest,52.159495,5.306665799999999
Vogelklos 11,Zeeland,51.7001888,5.6739773
Simon Johannesstraat 27,IJsselmuiden,52.5683817,5.9315294
Goudplevier 38,IJsselmuiden,52.5683936,5.9419246
Eglantierhof 27,Roermond,51.19189230000001,6.0217993
Capella 6,Veldhoven,51.4117487,5.3917822
Woelse Donk 36,Gorinchem,51.8296402,4.9986219
St. Annakapelstraat 21,Culemborg,51.950382,5.2288101
Krommenhorst 22,Breedenbroek,51.8724381,6.4702857
Albert van Dalsumstraat 14,Hengelo (OV),52.286947,6.8375903
Dotterbloem 39,Boekel,51.6114383,5.673750099999999
Heuvelweg 24,Soest,52.1890371,5.2887581
P.C. Hooftlaan 24,Uithoorn,52.24612260000001,4.8236615
Cornelis van Vugtstraat 6 *,Zaandam,52.452591,4.828838999999999
Aristotelesstraat 10,Honselersdijk,52.00974300000001,4.237112
Sint Josephstraat 140 a,Dongen,51.6249425,4.9440535
Willem-Alexanderpark 10,Best,51.5005803,5.387544699999999
Elzehoutstraat 5,Helmond,51.4627212,5.6367787
Italielaan 19,IJsselstein,52.0208628,5.0578078
Kiwistraat 15,Almere,52.3684264,5.250068800000001
Haverdijk 68,Prinsenbeek,51.598172,4.720097099999999
Eesveen 10,Zaandam,52.45338580000001,4.801178699999999
Topaas 56,Hoorn (NH),52.6588629,5.0706076
Petrusstraat 20,Breda,51.5679406,4.7951008
Heulenslag 56,Bleskensgraaf ca,51.8658364,4.7471814
Sweelinckstraat 3,Veghel,51.6134138,5.5417765
Perzikgaard 8,Spijkenisse,51.833438,4.3306971
Maarten Lutherweg 146,Amstelveen,52.2927403,4.863239699999999
De Weergang 19,Arnhem,51.96010649999999,5.85915
Hettenheuvellaan 11,Eindhoven,51.4823088,5.4648602
Concorde 13,Buren (GE),51.9103889,5.334058400000001
Ferlemanstraat 8,Terneuzen,51.3073816,3.8569884
Verveenstraat 20,Berkel en Rodenrijs,51.997981,4.4836405
Van Brerostraat 85,Apeldoorn,52.2052252,5.9446637
Leuvert 11,Beers,51.7238072,5.8409989
Reggestraat 61,Dongen,51.62882579999999,4.919530099999999
Varikse zwarte 4,Elst (GE),51.9108052,5.838087499999999
Zuideinde 40,Nieuwkoop,52.13499299999999,4.7661954
Westerdorpsstraat 47,Hoevelaken,52.1750072,5.4534451
Ad van der Steurzoom 60,Bergschenhoek,51.9990891,4.4964373
Van Nijenrodelaan 16,De Meern,52.0798583,5.033703099999999
Hugo de Vriesstraat 24,Leiden,52.14852,4.4952082
Saendelverlaan 154,Assendelft,52.490014,4.7530907
Joseph Bechstraat 17,Zevenaar,51.9312194,6.0494039
De Stroekeld 118,Rijssen,52.3113859,6.4990701
Maandenweg 59,Almere,52.40369020000001,5.2800775
Klompstraat 25,Apeldoorn,52.2146947,5.9527658
IJweg 1646,Nieuw-Vennep,52.2746651,4.6093573
Beursweg 4,Huizen,52.2946914,5.2361848
Kerklaan 11,Loenen aan de Vecht,52.22194589999999,5.009576399999999
Immenweg 18,Lunteren,52.0863153,5.6749451
Nieuwekampen 5 A,Vinkel (Gem. Den Bosch),51.7081109,5.4443211
Cornelis Kraanstraat 32,Rotterdam,51.9279445,4.5540427
Edelhertlaan 5,Helmond,51.4570123,5.704400499999999
Clingendaellaan 175,Almere,52.3899951,5.2659607
Fellinilaan 145,Almere,52.3577309,5.2422338
Middelveld 5,Cothen,51.99476079999999,5.3120174
Erasmusstraat 24,Rotterdam,51.93072160000001,4.4827271
Paulusstraat 3,Sint Anthonis,51.6254212,5.888267099999999
Dr Holwerdastraat 8,Wijk bij Duurstede,51.9780885,5.3380098
Sambrestraat 29,Assen,53.0042296,6.535793099999999
Het Veldje 121,Horst,51.4527788,6.060503799999999
Breestraat 8,Heusden (Gem. Heusden),51.7333492,5.1374325
Burg. Lemmensstraat 251,Geleen,50.9813693,5.809378199999999
Burg. Lemmensstraat 249,Geleen,50.9813655,5.809453
Jurgensstraat 45,Elsloo (LI),50.9477061,5.769199599999999
Wonge 30,Warmenhuizen,52.7216792,4.728458799999999
Castertstraat 5,Ell,51.2128071,5.7538836
Hendrik Werkmanhof 14,Veendam,53.1159973,6.8691228
Merel 3,Bedum,53.3026169,6.6098928
Blauwe Slenk 8,Harlingen,53.1591247,5.439013099999999
Grevelingenhout 37,Bruinisse,51.6699134,4.0713981
Raadhuisplein 17,Rijen,51.5902207,4.9109588
Jean Monnetstraat 232,Heemskerk,52.5179477,4.6808399
Rogstraat 37,Herpen,51.7702756,5.6382093
Deurningerstraat 86,Enschede,52.2275535,6.8905055
Noordbargerstraat 36,Emmen,52.7758531,6.8934203
Esdoornlaan 15,Castricum,52.5546728,4.6603305
Bergstraat 4,Neede,52.1354194,6.6105065
Spindermolen 9,Hardinxveld-Giessendam,51.8266776,4.8390165
Aggelenstraat 9,De Rijp,52.5545318,4.8432349
Lipperkerkstraat 116,Enschede,52.22185649999999,6.9095843
Touwslagersbaan 99,Gendringen,51.8689448,6.3757436
Madeliefstraat 8,Doetinchem,51.9498746,6.3110778
Janbaas 35,Nieuwendijk,51.7795822,4.9132492
De Steenzager 45,Veldhoven,51.4160003,5.392326199999999
Mesdaghof 1,Nijkerk,52.2136394,5.4988294
Veentien 7,Meppel,52.6928577,6.2195842
Zalmstraat 8,Heerewaarden,51.8169027,5.3926408
Botterlaan 32,Zaandam,52.44865979999999,4.837076199999999
Gastakker 69,Breda,51.59209,4.8158389
Park Oosterspaarn 27,Haarlem,52.3509405,4.6439048
Lisztgaarde 300,Oss,51.753499,5.5151879
Lemmenslaan 65,Eindhoven,51.4177061,5.4558654
Ien Dalessingel 104,Zutphen,52.12614019999999,6.2326342
Brochestraat 3,Almere,52.41126149999999,5.305040099999999
Leefdaelhof 3,Waalwijk,51.6898365,5.0574699
Oranjestraat 71,Ridderkerk,51.8840262,4.6114969
Zeemansstraat 11,Zaandam,52.44085639999999,4.8214465
Kruburg 4,Eindhoven,51.4829012,5.495559999999999
Merkendal 8,Arnhem,52.0077463,5.8780174
18 novemberring 130,Panningen,51.3213739,5.9848325
De Driestal 28,Heiloo,52.6069556,4.7039761
Javastraat 5,Roermond,51.1781264,6.0002837
Haagakker 16,Rijsbergen,51.514865,4.689629399999999
Gebroeders Daelstraat 25,Venlo,51.3614257,6.1838159
Bouwheerstraat 45,Barneveld,52.1377216,5.5845956
Korte Wijden 19,Elburg,52.4461372,5.844614099999999
Tholenstraat 13,Kampen,52.5485964,5.9194947
Burgemeester v Raaijstr 18,Beers,51.725249,5.8221647
Bisschop Zwijsenplein 27,Vught,51.6393195,5.2841865
Prinsenweg 13,Elst (UT),51.98557,5.5064708
Marijkelaan 15,Bergen (NH),52.6709472,4.7107787
Baai 71,Lelystad,52.5156798,5.487999599999999
De Koolmees 50,Vriezenveen,52.4030481,6.6142641
Middenstraat 70,Woudenberg,52.0827873,5.410116299999999
Willem van Gulikstraat 4,Arnhem,51.985947,5.924928
Emmaweg 54,Maarssen,52.14043479999999,5.041767399999999
Zwarteweg 9 a,Oosterwolde (GE),52.464063,5.8963012
Tasmanstraat 19,IJmuiden,52.4624686,4.6132592
Boven Wijde 11,Almere,52.38751689999999,5.2260026
Lage Wei 16,Harderwijk,52.3361883,5.608740399999999
Koningskinderen 23,Eindhoven,51.48622779999999,5.4834245
Piershilstraat 12,Zoetermeer,52.0650822,4.5408219
Slimtocht 24,Berkhout,52.6434991,5.006670199999999
Groot Heiligland 38,Haarlem,52.3773479,4.6338637
Spaarnestraat 110,Amersfoort,52.16217959999999,5.3629593
Linge 5,Deurne,51.4595012,5.8025201
Turfsingel 70,Gouda,52.010623,4.7026448
Schopenhauerstraat 145,Apeldoorn,52.2268482,6.0023851
Vlonderkamp 4,Noordwijkerhout,52.2622643,4.4836919
Haydnstraat 43,Vlaardingen,51.9057929,4.3367713
Klein Paradijs 4,Beekbergen,52.1466473,5.9733227
Larixstraat 24,Utrecht,52.1038548,5.1026355
Zetveld 28,Peize,53.1406851,6.5035088
Damastberg 178,Roosendaal,51.5128153,4.4405418
Bootstraat 38,Etten-Leur,51.5840636,4.6489998
Granaat 4,Zoetermeer,52.0384003,4.478769
Mgr. van de Weteringstraat 5,Utrecht,52.092087,5.1313767
Anton Mauvestraat 19,Leeuwarden,53.189673,5.793886199999999
Helmgras 4,Monster,52.0224459,4.1647574
Bogardeind 88,Geldrop,51.4164575,5.5570353
Vervoornstraat 120,Putten,52.251195,5.6038345
Rubrum 11,Akersloot,52.55916879999999,4.7253574
Schokker 22,Zeewolde,52.3344126,5.5321491
De Wieken 3,Beek en Donk,51.5308212,5.627548099999999
Minister Loudonlaan 68,Enschede,52.22550409999999,6.875576199999999
Kastanjelaan 31,Driebruggen,52.0424387,4.7985525
Mariëndaal 69,Enschede,52.2004392,6.8671931
Prins Bernhardlaan 1,Zutphen,52.1418788,6.2093648
Dr. Schaepmanlaan 5,Veghel,51.6121886,5.5484992
Vestdijkgaarde 15,Deventer,52.2773765,6.1402553
Martinus Nijhofflaan 20,Kloetinge (Gem. Goes),51.4904243,3.908451
Hessenweg 371,Achterveld (UT),52.1350387,5.5046424
Het Schip 125,Apeldoorn,52.2173455,6.0139682
Pijperstraat 5,Assen,53.0065071,6.5640106
Hoogstraat 104,Oosteind,51.6433933,4.8951557
Vier Wieken 28,Valburg,51.9082179,5.7896056
Vliewint 51,Petten,52.7657125,4.6562752
Reisvennestraat 72,Valkenswaard,51.3435164,5.459590899999999
Rozemarijntuin 16,Assen,53.0000271,6.509331899999999
Turfmarkt 126,Gouda,52.0114008,4.706392
Hercules 97,Katwijk (ZH),52.2126204,4.4204646
Irisstraat 6,Amersfoort,52.1585968,5.3603681
Van Doesburg-erf 77,Dordrecht,51.80540269999999,4.718735400000001
Anton Coolenstraat 1,Gorinchem,51.8373736,4.9908703
Kleine Wiel 27,Gorinchem,51.8369296,4.9859766
Amen 57,Amen,52.9393791,6.607032999999999
Rengersweg 32,Oentsjerk,53.2498748,5.897294800000001
Anfieldroad 97,Amsterdam,52.3427041,4.9500087
Singelweg 5,Middelburg,51.5271743,3.6027461
Assendelverstraat 61,Haarlem,52.3809283,4.624118999999999
Cornelis Trooststraat 28,Helmond,51.4931366,5.6767027
Radenlaan 39,Zwolle,52.48291010000001,6.1191536
Jan Lievensstraat 24,Leeuwarden,53.1937323,5.7883096
Tesstraat 6,Boven-Leeuwen,51.8804945,5.5340772
Schaepmanlaan 3,Vlijmen,51.6985521,5.2080759
Oliestraat 16,Grave,51.7590118,5.7416301
's-Gravendamseweg 29,Noordwijkerhout,52.2456387,4.4939895
Elzeneiland 10,Rijswijk (ZH),52.0314534,4.301192299999999
Wikkestraat 13,Alphen aan den Rijn,52.1467795,4.684277199999999
Evenboersweg 21,Punthorst,52.60519129999999,6.2872691
Hoge Boekelerweg 77,Enschede,52.2274348,6.918604699999999
Michelangelohage 3,Emmeloord,52.7269477,5.7429573
Roemer Visscherstraat 29,Leiden,52.1610448,4.467995699999999
Jan van der Heijdenstraat 48,Gorinchem,51.84191939999999,4.980730299999999
Deestraat 29,Poortvliet,51.5456533,4.1439653
Kievitlaan 16,Sliedrecht,51.8214537,4.7872987
Saksen-Anhalt 20,Arnhem,52.006672,5.925577
Sir Winston Churchillln 12,Rijswijk (ZH),52.0517294,4.3413772
Paul Butterfieldstraat 5,Middelburg,51.4853689,3.6308846
Hangerad 36,Rijssen,52.310533,6.5278496
Maagdenpalm 27,Arnhem,51.9664504,5.8936769
Molenkamp 19,Bennekom,52.0051783,5.6833202
Dubloen 60,Mijdrecht,52.2121893,4.860914800000001
Irisstraat 7,Enschede,52.227661,6.9164167
Zandstraat 58,Doetinchem,51.9824922,6.286027799999999
Wachtmeester 21,Gorinchem,51.83719,5.015023999999999
De Leek 2,Beilen,52.8512889,6.5132489
Jan Braskersteeg 3,Edam,52.51437809999999,5.0476595
Alsteedseweg 54 a,Haaksbergen,52.1329726,6.858832400000001
Wedderstraat 48,Vlagtwedde,53.04150509999999,7.096402899999999
Ellestraat 14,Heikant,51.2520287,4.0283812
Oudlandsestraat 61,Steenbergen (NB),51.5769946,4.3152247
Hof van Edinburgh 21,Doetinchem,51.9588204,6.263896099999999
Gerstdreef 95,Doetinchem,51.9697022,6.251853
Borculoseweg 41,Neede,52.1349102,6.6067858
Lindenlaan 27,Meeden,53.1419986,6.928223699999999
Tuinderij 21,Ursem (Gem. Koggenland),52.628044,4.901803
Amerikaweg 6,Beekbergen,52.1707684,5.964497199999999
Hudsonring 69,Drunen,51.683403,5.1179423
Amstelstraat 53,Oost-Souburg,51.4680069,3.5994942
Voorweg 50,Nieuwe Wetering,52.2084545,4.6191645
Palmgracht 46,Amsterdam,52.38221919999999,4.8834984
Wilgenoord 42,Bodegraven,52.0780912,4.7408866
Goudhoeksland 69,Nuenen,51.487051,5.570193
Hoofdgracht 13,Naarden,52.3099803,5.1509187
Cambuurstraat 16,Leeuwarden,53.2039334,5.8116588
Galgenberg 12,Rhenen,51.96295079999999,5.559262299999999
Ambachtsstraat 36,'s-Gravenpolder,51.4589408,3.8994554
Reigerskamp 154,Maarssen,52.1346109,5.0136604
Kaarder 17,Hoorn (NH),52.6578105,5.053348499999999
Briljant 16,Eindhoven,51.4881911,5.4614303
Jean Gilbertlaan 18,Utrecht,52.11024099999999,5.036313
Doude van Troostwijkstraat 15,Nieuwer Ter Aa,52.1903764,4.9806361
Esmoreitplein 2,Amersfoort,52.1698223,5.3788424
Lavendelhof 46,Nieuwegein,52.00935029999999,5.0795511
Generaal Boreelpad 27,Eindhoven,51.4639088,5.479207499999999
Abt van Grevenbroekstraat 5,Herpt,51.7280214,5.156871199999999
Utrechtseweg 226,Arnhem,51.9842136,5.8837252
Bottelroosstraat 29,Bakel,51.497682,5.7377461
Gerichtenweg 33,Doornspijk,52.4312702,5.8397068
Azalealaan 28,Heerhugowaard,52.6644973,4.8466413
Raadhuisstraat 9,Diemen,52.3395709,4.9574196
Hof van Versailles 46,Amsterdam,52.3675829,4.8322098
Cyclamenstraat 41,Eindhoven,51.4187738,5.490238199999999
Le Corbusierstraat 10,Dongen,51.6291287,4.9501513
Jan Bijhouwerstraat 85,Purmerend,52.49310329999999,4.9651366
Jacob van Ruysdaellaan 23,Lochem,52.1572453,6.4042672
Beethovenstraat 17,Leeuwarden,53.2075246,5.7807081
Borredreef 68,Vlijmen,51.69212779999999,5.2216505
Oosterduinplein 15,IJmuiden,52.4596059,4.6160434
Jeneverbes 14,Amersfoort,52.1875886,5.3860341
d'Hondecoeterstraat 69,Leeuwarden,53.1933511,5.7892044
Rijnbandijk 221,Rijswijk (GE),51.9601602,5.3620217
Beekdal 11,Assendelft,52.4832657,4.762580499999999
Dr. W. Dreesstraat 149,Katwijk (ZH),52.2094757,4.4145135
Dommelstraat 4,Geldrop,51.4279747,5.5481425
Zwanenstraat 68,Nijmegen,51.8266132,5.8042167
Zadel 5,Leusden,52.1271871,5.4236974
Zilverschoon 4,Bodegraven,52.0751933,4.7635355
Tempellaan 21,Eindhoven,51.48387460000001,5.484005499999999
Buitenhof 71,Etten-Leur,51.5819609,4.6376651
Eventer 7,Berghem,51.7694918,5.5761185
Graaf 93,Echt,51.1031245,5.8675085
Sportparklaan 3,Horn,51.2057165,5.9314936
Klapwijkse Zoom 309,Berkel en Rodenrijs,51.9960987,4.4592439
Meeuwenweg 15,Zuidwolde (DR),52.6409422,6.394220199999999
Neerijnen 62,Barneveld,52.1307121,5.579297599999999
Scheperstraat 26,Sevenum,51.40553509999999,6.0346234
Grintweg 121,Winschoten,53.1525458,7.018417100000001
De Meridiaan 6,Dronten,52.5217763,5.709809099999999
Goudsmidsstraat 45,Hoorn (NH),52.6517534,5.0633491
Gravenborch 54,Houten,52.0363535,5.1520006
den Dam 27,Breedenbroek,51.880604,6.4684351
Koudhoornseweg 4,Garderen,52.234793,5.7096776
Droogmakerij 9,Middenbeemster,52.54478899999999,4.918731
Breegraven 11,Warnsveld,52.1406096,6.2231656
Ouderkerkerlaan 52,Amstelveen,52.29960269999999,4.856550899999999
Marie van Zeggelenstraat 43 .,Spijkenisse,51.8332661,4.3661217
Waterput 11,Cuijk,51.745576,5.858689
Cederstraat 5,IJmuiden,52.4558162,4.6281546
Achterom 61,Hoorn (NH),52.6407313,5.0558367
Prof ten Doesschatestraat 137,Heemskerk,52.5184197,4.684218599999999
Kennemerland 18,Den Bosch,51.7281406,5.305542
Lisztstraat 22,Alkmaar,52.6435898,4.733863599999999
Indusstraat 94,Spijkenisse,51.8435269,4.355313
Foswerterstrjitte 40,Ferwert,53.3365787,5.8189797
Hofrichterstraat 1,Eibergen,52.1045491,6.633820999999999
Sinte Catharinadal 3,Willemstad,51.6884668,4.4457589
Malta 64,Zoetermeer,52.0535253,4.5403856
Koningsvaren 48,Bergschenhoek,51.9936638,4.4971478
Alkmaarseweg 172,Beverwijk,52.4904579,4.6597729
De Waarden 14,Zutphen,52.1266432,6.1925694
Laanstraat 19,Soest,52.1809233,5.277928
Haringvlietstraat 28,Lewedorp,51.4953477,3.745372199999999
Bevershoeve 16,Berlicum,51.678977,5.3932059
Waterspoor 39,Wierden,52.3528747,6.5892376
Duinweg 19,Wassenaar,52.12734,4.3617589
Lavendelhof 46,Nieuwegein,52.00935029999999,5.0795511
Generaal Boreelpad 27,Eindhoven,51.4639088,5.479207499999999
Abt van Grevenbroekstraat 5,Herpt,51.7280214,5.156871199999999
Utrechtseweg 226,Arnhem,51.9842136,5.8837252
Bottelroosstraat 29,Bakel,51.497682,5.7377461
Gerichtenweg 33,Doornspijk,52.4312702,5.8397068
Azalealaan 28,Heerhugowaard,52.6644973,4.8466413
Raadhuisstraat 9,Diemen,52.3395709,4.9574196
Hof van Versailles 46,Amsterdam,52.3675829,4.8322098
Cyclamenstraat 41,Eindhoven,51.4187738,5.490238199999999
Le Corbusierstraat 10,Dongen,51.6291287,4.9501513
Jan Bijhouwerstraat 85,Purmerend,52.49310329999999,4.9651366
Jacob van Ruysdaellaan 23,Lochem,52.1572453,6.4042672
Beethovenstraat 17,Leeuwarden,53.2075246,5.7807081
Borredreef 68,Vlijmen,51.69212779999999,5.2216505
Oosterduinplein 15,IJmuiden,52.4596059,4.6160434
Jeneverbes 14,Amersfoort,52.1875886,5.3860341
d'Hondecoeterstraat 69,Leeuwarden,53.1933511,5.7892044
Rijnbandijk 221,Rijswijk (GE),51.9601602,5.3620217
Beekdal 11,Assendelft,52.4832657,4.762580499999999
Dr. W. Dreesstraat 149,Katwijk (ZH),52.2094757,4.4145135
Dommelstraat 4,Geldrop,51.4279747,5.5481425
Zwanenstraat 68,Nijmegen,51.8266132,5.8042167
Zadel 5,Leusden,52.1271871,5.4236974
Zilverschoon 4,Bodegraven,52.0751933,4.7635355
Tempellaan 21,Eindhoven,51.48387460000001,5.484005499999999
Buitenhof 71,Etten-Leur,51.5819609,4.6376651
Eventer 7,Berghem,51.7694918,5.5761185
Graaf 93,Echt,51.1031245,5.8675085
Sportparklaan 3,Horn,51.2057165,5.9314936
Klapwijkse Zoom 309,Berkel en Rodenrijs,51.9960987,4.4592439
Meeuwenweg 15,Zuidwolde (DR),52.6409422,6.394220199999999
Neerijnen 62,Barneveld,52.1307121,5.579297599999999
Scheperstraat 26,Sevenum,51.40553509999999,6.0346234
Grintweg 121,Winschoten,53.1525458,7.018417100000001
De Meridiaan 6,Dronten,52.5217763,5.709809099999999
Goudsmidsstraat 45,Hoorn (NH),52.6517534,5.0633491
Gravenborch 54,Houten,52.0363535,5.1520006
den Dam 27,Breedenbroek,51.880604,6.4684351
Koudhoornseweg 4,Garderen,52.234793,5.7096776
Droogmakerij 9,Middenbeemster,52.54478899999999,4.918731
Breegraven 11,Warnsveld,52.1406096,6.2231656
Ouderkerkerlaan 52,Amstelveen,52.29960269999999,4.856550899999999
Marie van Zeggelenstraat 43 .,Spijkenisse,51.8332661,4.3661217
Waterput 11,Cuijk,51.745576,5.858689
Cederstraat 5,IJmuiden,52.4558162,4.6281546
Achterom 61,Hoorn (NH),52.6407313,5.0558367
Prof ten Doesschatestraat 137,Heemskerk,52.5184197,4.684218599999999
Kennemerland 18,Den Bosch,51.7281406,5.305542
Lisztstraat 22,Alkmaar,52.6435898,4.733863599999999
Indusstraat 94,Spijkenisse,51.8435269,4.355313
Foswerterstrjitte 40,Ferwert,53.3365787,5.8189797
Hofrichterstraat 1,Eibergen,52.1045491,6.633820999999999
Sinte Catharinadal 3,Willemstad,51.6884668,4.4457589
Malta 64,Zoetermeer,52.0535253,4.5403856
Alkmaarseweg 172,Beverwijk,52.4904579,4.6597729
De Waarden 14,Zutphen,52.1266432,6.1925694
Laanstraat 19,Soest,52.1809233,5.277928
Haringvlietstraat 28,Lewedorp,51.4953477,3.745372199999999
Waterspoor 39,Wierden,52.3528747,6.5892376
Duinweg 19,Wassenaar,52.12734,4.3617589
Bizetstraat 19,Heemskerk,52.51626719999999,4.6742301
Patrijslaan 6,Boekel,51.59987350000001,5.6817078
Johan Huizingastraat 30,Alkmaar,52.665837,4.7726161
Dorpstraat 32,Dreumel,51.8489624,5.4336348
De Krom 34,Katwijk (ZH),52.20972880000001,4.4282929
Rosendaal 75,Heiloo,52.5918597,4.713736700000001
Haarstraat 104,Rijssen,52.308249,6.515274199999999
Hakselseweg 22,Ede,52.0330179,5.6551208
Kaninefatendreef 6,Alphen aan den Rijn,52.1193938,4.6437323
Rijnlaan 232,Utrecht,52.0683598,5.1137283
Badhuislaan 62,Bussum,52.272738,5.1735308
Rostockstraat 140,Lelystad,52.5096639,5.4689942
Molenhof 4,Kampen,52.5534992,5.9221999
Meester Jochemsstraat 20,Meijel,51.3409865,5.8879554
Tepestraat 5,IJsselstein,52.015631,5.0390573
Steenweg 40,Moerdijk,51.7007858,4.6293372
Schuttershof 4,Arnemuiden,51.5005748,3.676581
Jonkerveld 413,Uden,51.6608867,5.6322972
Annie van Hattemtuin 23,Heerhugowaard,52.6461433,4.821549200000001
Speeldries 1,Eersel,51.36113599999999,5.3250614
Kuyckshof 7,Meteren,51.8695672,5.2915931
Dr. J.R. Thorbeckelaan 130,Heemstede,52.332299,4.6125126
Bisschop Rythoviusdreef 1 a,Riethoven,51.3622029,5.3149073
Esdoornlaan 3,Wormerveer,52.4900776,4.7919264
Hertogstraat 2 a,Sprundel,51.5379163,4.6009984
Giek 22,Huizen,52.2887154,5.2542076
Woenselsestraat 337 339,Eindhoven,51.4615375,5.4718255
Tadamastraat 21,Zutphen,52.1369276,6.2014754
Padweg 21,Oost-Souburg,51.4608877,3.596843299999999
Motet 10,Kampen,52.5579645,5.914461699999999
Maaskade 89 A + B,Rotterdam,51.9139247,4.4941696
Kennemerstraatweg 257,Alkmaar,52.62023869999999,4.7340563
Torenstraat 6,Meliskerke,51.5152647,3.511242
Mr. Synco Reyndersplein 11,Appingedam,53.3206783,6.8544218
Ladderbeekstraat 112,Velsen-Noord,52.4714097,4.646594299999999
Platolaan 23,Assen,52.9921418,6.586771799999999
Kerkpadsblok 16,Wijhe,52.38206419999999,6.1365107
Breitnerstraat 90,Arnhem,51.9985965,5.8800427
Emondsstraat 8,Waspik,51.68769330000001,4.9427088
Papiermolen 43,Hoorn (NH),52.6356044,5.023127199999999
Groene Wetering 24,Gouderak,51.981992,4.6793452
Moreelsestraat 69,Ede,52.0191805,5.659451799999999
Schaepmanlaan 4,Vlijmen,51.6987933,5.208223200000001
Dubbelspoor 23,Capelle aan den IJssel,51.9558226,4.5869614
Jan van Nassaustraat 25,Sneek,53.0289989,5.6676524
Binnenlandse Baan 12,Barendrecht,51.8562873,4.5383128
Scherpenbergsebaan 6,Schijf,51.500388,4.5661195
Fuutstraat 20,Sliedrecht,51.8215088,4.7915298
Minister Aalbersestraat 23,Maastricht,50.8422011,5.7109026
Fang 6,Rottum (FR),53.3829417,6.6200842
Eindstraat 24,Veldhoven,51.4234437,5.4201879
Prinses Beatrixstraat 55,Bodegraven,52.0806839,4.7520047
Le Tourmalet 11,Amsterdam,52.34997389999999,4.775352499999999
Irenestraat 8,Erp,51.6039779,5.6060342
Esdoornhout 7,Assen,53.00488929999999,6.5192003
Koggestraat 46,Wervershoof,52.7316028,5.1522472
Zwanensingel 265,Wijchen,51.8162597,5.7352021
Hoogheidseweg 6,Venray,51.534637,5.9681133
Nansenstate 30,Ede,52.0193063,5.6359145
Kievitstraat 27,Alkmaar,52.6323486,4.757044
Bernhardstraat 30,Rijen,51.5912594,4.9242852
Refeling 49,Nuenen,51.46706589999999,5.5535803
Anna van Burenstraat 26,Alkmaar,52.62185330000001,4.7401861
Lengelseweg 24,'s-Heerenberg,51.8763185,6.249079
Willem Walravenhove 39,Nieuwegein,52.0547113,5.0785304
Balsa 209,Dordrecht,51.81329789999999,4.6900929
Bosstraat 16,Silvolde,51.91189199999999,6.3774175
Wingerd 34,Vroomshoop,52.4655218,6.568089100000001
Ferdinand Bolstraat 62,Leeuwarden,53.1908297,5.7918007
Hoefslag 80,Nijkerk,52.2163911,5.4929578
Tasveld 13,Rheden,52.0088058,6.034258299999999
van Limburg Stirumlaan 55,Naarden,52.2963502,5.1527877
de Vosplantsoen 5,Hulst,51.2912034,4.0508595
Waardenborchstraat 35,Holten,52.2793866,6.4295315
Waterkerslaan 16,Oosterhout (NB),51.65333039999999,4.8786244
Kennemerbeekweg 23,Bennebroek,52.3179167,4.5936264
Legmeerdijk 220 a,Amstelveen,52.2714988,4.8062783
Zijlroede 21,Leeuwarden,53.1842437,5.8252467
Floraronde 7,Uitgeest,52.5273458,4.7016504
Elandenburg 137,Barendrecht,51.8595145,4.5038258
De Rank 17,Harskamp,52.1325809,5.751477599999999
De Eng 13,'t Goy,52.00255180000001,5.2234215
Meester Kooningsplaats 16,Eindhoven,51.4478842,5.472301499999999
Bovensingel 90,Kampen,52.5484444,5.9187708
Grotestraat 92,Borne,52.2975489,6.7610623
Hietweideweg 64,Twello,52.2278491,6.097732
Langsakker 1,Laren (NH),52.2472015,5.210318900000001
Ubachsberg 29,De Meern,52.07579399999999,5.031977899999999
van Rechterenlaan 3,Grave,51.7490673,5.748185599999999
Bellefleurstraat 9,Aalsmeer,52.2765707,4.795968999999999
Bremstraat 1,Drunen,51.6905679,5.125363699999999
Nieuwe Land 8,Kampen,52.53737,5.9275167
Schotlandstraat 52,Almere,52.34916279999999,5.1458777
Orlofflaan 66,Barneveld,52.1264767,5.5960993
Biltseveste 32,Nieuwegein,52.0246098,5.0951182
Vleutloop 18,Heesch,51.732613,5.542746999999999
Oude Haagweg 709 A,Den Haag,52.0648226,4.263855599999999
Ommelanderwijk 134,Veendam,53.0845455,6.911205199999999
Breeveen 43,Ede,52.051584,5.627591000000001
Buinerweg 1,Exloo,52.8899479,6.869304
Emmastraat 46,Angeren,51.9156606,5.954549399999999
Anna Clasina op 't Landtplantsoen 52,Heerhugowaard,52.64830869999999,4.8284926
Het Kasteel 24,Apeldoorn,52.2128569,6.008487199999999
Jaagpad 27,Etten-Leur,51.5912763,4.654470799999999
Groenplaats 14,Veenendaal,52.0198754,5.579884499999999
Bijsselseweg 11 42,Biddinghuizen,52.4209705,5.7546816
Sweelinckplantsoen 96,Zwijndrecht,51.81915979999999,4.614474599999999
Regenboog 175,Elst (GE),51.9224851,5.8582923
Wouwermanstraat 73,Haarlem,52.3916094,4.626963700000001
Krekelplantsoen 1,Almere,52.38352159999999,5.2782939
Wilgenlaan 7,Arnhem,51.9710261,5.9037793
Marijkelaan 19,Vlijmen,51.6924725,5.1999191
Spant 94,Hoorn (NH),52.6555468,5.0905891
Albert Neuhuysstraat 15,Arnhem,51.9954242,5.8756249
Schuytstraat 94,Pernis Rotterdam,51.8886435,4.389251
Waalstraat 30,Nijmegen,51.8498907,5.845609
Exportstraat 5,Boxmeer,51.6446548,5.9344363
van Heemskercklaan 49,Doorn,52.0455614,5.3358637
De Buiskap 5,Dronten,52.5170024,5.727041600000001
Dorpsstraat 170,Enter,52.2893674,6.5765669
Gerard Doggerlaan 51,Den Haag,52.0624518,4.3923226
Buitenbaan 26,Gorinchem,51.8457792,4.9816508
Kersenplukkerserf 1,Arnhem,51.9475565,5.8519267
De Kievit 8,Groenlo,52.0344006,6.6113366
Bekerpad 6,Oss,51.77806750000001,5.533456699999999
Malibongwestraat 69,Purmerend,52.48797829999999,4.9598856
Hapseweg 9,Oeffelt,51.6939004,5.919238600000001
Wepel 58,Annen,53.053054,6.7178317
Hendrik van Cuyklaan 10,Waalre,51.392591,5.4559111
De Kavelen 10,Waalre,51.39230689999999,5.4396976
Frederik van Eedenstraat 17,Papendrecht,51.8369614,4.6770046
Nachtegaalstraat 53,Middenbeemster,52.5463494,4.906969
Maaseikerweg 188,Weert,51.2354627,5.7196466
Zuideinde 6,Abbekerk,52.7286464,5.020271699999999
Eikenhorstlaan 3,Wassenaar,52.1216789,4.385320099999999
Statenlaan 20,Helmond,51.4609373,5.612245199999999
Houtduif 29,Etten-Leur,51.57532759999999,4.6503714
Bamendaweg 12,Dordrecht,51.7999452,4.706389199999999
Molenweg 12,Liessel,51.4142777,5.815487999999999
Vlierboomstraat 9,Alphen aan den Rijn,52.1329986,4.6475326
Kruisakker 18,Sint-Oedenrode,51.570255,5.4737658
Ruychrocklaan 115,Den Haag,52.0988284,4.3167173
Graafschap 26,Lelystad,52.49653679999999,5.460969299999999
Elperstraat 6,Schoonloo,52.9036786,6.695661599999999
Gedempte Haven 16,Grou,53.096484,5.840787199999999
Nieuwstraat 78,Leidschendam,52.0782913,4.4002823
Evert van 't Landstraat 37,Apeldoorn,52.180507,5.959053
Zuilenstraat 37 A,Breda,51.58014000000001,4.7440808
Paul Henri Spaakstraat 5,Herten,51.1740635,5.9712983
Monnetstraat 10,Zevenaar,51.93328469999999,6.057631799999999
Ruischerwaard 63,Groningen,53.22925670000001,6.6189434
Weegbree 34,Lelystad,52.48909399999999,5.444799
Plataanstraat 14,Tilburg,51.5590933,5.063538299999999
Molenvaart 281,Anna Paulowna,52.8702021,4.8093797
Friezengaarde 2,Alphen aan den Rijn,52.1197461,4.6444904
Willem van Velsenstraat 51,Heemskerk,52.5066334,4.6815571
Horst 36 24,Lelystad,52.50461490000001,5.4933992
Nijkerkerschans 28,Nieuwegein,52.02069059999999,5.0964561
Wijnkers 33,Elst (GE),51.90968729999999,5.8372281
Vuurvlinder 11,Enschede,52.2092393,6.957641
Wethouder Nijhuisstraat 105,Enschede,52.2143279,6.8615125
Keldercroftlaan 33,Heiloo,52.5974852,4.704752699999999
Pagendijk 24,Borculo,52.1136548,6.5198298
De Brink 44,Heiloo,52.5894862,4.7098146
Rijsdammerweg 2 B,Sellingen,52.9624483,7.145420499999999
van Driestenstraat 9,Rijnsburg,52.187631,4.433723
Ranonkel 26,Berkel-Enschot,51.574892,5.132164
Brandenborchstraat 27,Almere,52.392449,5.2667763
Krommehoekstraat 19,Beuningen (GE),51.8560405,5.7615213
Dokkumerdiep 10,Zaandam,52.4676025,4.8298191
Rijksstraatweg 203,Haarlem,52.4065607,4.6490041
Willink van Collenstraat 62,Breukelen,52.1689866,5.0002844
Zonneroosstraat 3,Eindhoven,51.41898639999999,5.4944758
Veldhofstraat 6,Gorssel,52.19834969999999,6.2019381
Goudastraat 12,Wormerveer,52.4887582,4.799466
Condorstraat 16,Gennep,51.6953973,5.9897814
Staringstraat 73,Oss,51.74922979999999,5.513453000000001
Westerzicht 241,Vlissingen,51.4633561,3.5873343
St.-Elisabethstraat 78,Vught,51.6533834,5.293360900000001
Stalmeesterslaan 21,Malden,51.7868285,5.8493531
Wezelhof 46,Silvolde,51.9061746,6.3950476
Merellaan 113,Capelle aan den IJssel,51.93376989999999,4.5853266
Hobbemalaan 54,Alkmaar,52.6360769,4.7238017
Kapitein Nemostraat 65,Tilburg,51.5678078,5.1094113
Doktersbleek 6,Eibergen,52.0983995,6.6393926
Zandhoen 31,Eindhoven,51.4453964,5.404088199999999
Grebbestraat 40,Amersfoort,52.1614352,5.365154299999999
Meyerweg 72,De Knipe,52.9683041,5.9672955
Ter Boort 8,Beek en Donk,51.524551,5.637057
Zwanenbloem 45,Elst (GE),51.9203212,5.8661492
Hamerstraat 15,Bussum,52.2690388,5.168826699999999
Henry Fordstraat 42,Zwartewaal,51.8800696,4.2220368
Heerenweg 96,Heiloo,52.6014597,4.7066838
Engelmanstraat 2,Hoofddorp,52.305662,4.688308
Arnoudstraat 29,Arnhem,51.9879839,5.940121899999999
Kennedylaan 6,Goirle,51.5266336,5.065402
Erve Joost 35,Holten,52.2745791,6.4166134
Slimstraat 20,Udenhout,51.6109978,5.1398801
Zilverbergweg 5,Overasselt,51.7590064,5.791645
Stadhouderslaan 1 a,Schiedam,51.9075884,4.399468600000001
Ambachtsherensingel 26,Mijdrecht,52.2051861,4.857096500000001
Cunegondisstraat 23,Thorn,51.1678207,5.8440018
Zwaluwstraat 17,Oosthuizen,52.5645027,4.9902867
Nieuwe Es 26,Wijster,52.8125371,6.522333
Laan van de Marel 422,Emmen,52.7873898,6.935154499999999
Varsseveldsestraatweg 124 a,Aalten,51.9340829,6.516410899999999
Klokjeslaan 60,Maarssen,52.1478534,5.0412589
Da Costastraat 51,Oss,51.74655629999999,5.5047982
Burgemeester van Loonstraat 39,Steenbergen (NB),51.58304099999999,4.3127856
Molenweg 27,Voorthuizen,52.1861004,5.611559
Abraham Bloemaertstraat 9,Waalwijk,51.6750461,5.0862383
Calville 39,Boskoop,52.0709715,4.6563346
Fluwijnberg 31,Roosendaal,51.5091168,4.4355912
Hofstukken 134,Assen,53.01937299999999,6.559021899999999
Botter 15,Nijkerk,52.2163998,5.4607239
Solislaan 57,Capelle aan den IJssel,51.9178891,4.540774
Hondsdraf 12,Eemnes,52.2482299,5.2593838
Wassenaarsestraat 178,Den Haag,52.10828009999999,4.2763374
Belle van Zuylenlaan 45,Amstelveen,52.3136808,4.8785471
Sportlaan 15,Hoogersmilde (Gem. Midden-Drenthe),52.90592650000001,6.391080199999999
Brielse Meer 5,Zaandam,52.4704659,4.8388728
Krekelmeent 9,Hilversum,52.2675927,5.139482999999999
Schorpioen 65,Schijndel,51.6089455,5.451556999999999
Rosmolenstraat 13,Leusden,52.1247376,5.4204034
Zwaluwstraat 4,Anna Paulowna,52.8569667,4.8224046
Lynnerkamp 16,Zwolle,52.489124,6.1129965
Blekenweg 127,Haren (GR),53.1689365,6.627537299999999
Van der Valk Boumanlaan 34,Woerden,52.0826944,4.894379499999999
De Weem 12,Westervoort,51.960275,5.9623033
Monnetstraat 14,Zevenaar,51.9330796,6.057587
Den Ilp 58 +loods,Den Ilp,52.454533,4.907321899999999
Inktzwamsingel 11,Vleuten,52.1011434,5.007992499999999
Hoefijzer 11,Hasselt,52.59450649999999,6.100492699999999
Sporkehout 6,Geldrop,51.4336896,5.572270899999999
Het Woltmansland 2,Hasselt,52.5946773,6.1031865
Tulpstraat 5,Arnhem,51.9880751,5.887319400000001
Dag Hammarskjöldstraat 11,Hoensbroek,50.9202014,5.932520299999999
Asserstraat 95,Katwijk (ZH),52.2141962,4.4262795
Wierdensestraat 86,Rijssen,52.3106255,6.5247723
Wethouder H.H. Korteboslaan 55,Rijssen,52.3119567,6.534233299999999
Zwenkgras 9,Leiden,52.1799249,4.504182399999999
Paardebloemweide 53,Woerden,52.0794425,4.8608575
Beatrixlaan 17,Nieuwkoop,52.1552416,4.7855554
Lupinestraat 7,Beuningen (GE),51.86129529999999,5.777161599999999
Stremselstraat 39,Purmerend,52.4980786,4.9858641
Beethovenstraat 25,Haarlem,52.36821,4.65635
Dahliastraat 123,Enschede,52.2306185,6.9157131
De Pol 14,Doesburg,52.0048147,6.1250857
Purmer 55,Lelystad,52.4958414,5.4218201
W. Warnaarlaan 70 .,Sassenheim,52.22748199999999,4.531878799999999
Meenscharsweg 2,Hindeloopen,52.9392753,5.403044599999999
Militaireweg 69,Krommenie,52.5038654,4.753370299999999
Pastoor Hoekx-singel 13,Rosmalen,51.7037572,5.3430068
Waalstraat 76,Almere,52.3853913,5.2235353
Newtonstraat 7,Schoonhoven,51.9553334,4.8371153
Domtorenstraat 22,Tilburg,51.5637655,5.0484301
Brittenburg 45,Dordrecht,51.7785576,4.6657256
Van den Elsenstraat 25,Diessen,51.4768819,5.1707021
Meidoornlaan 14,Sassenheim,52.22599959999999,4.5293276
Corrie Vonkplantsoen 39,Spijkenisse,51.8384453,4.36609
Fonteinkruid 40,Oudkarspel (Gem. Dijk en Waard),52.6645361,4.825351899999999
Klipper 73,Barendrecht,51.84868059999999,4.5467698
Turfsteker 7,Odiliapeel,51.639769,5.709937
Hoornwerk 35,Zutphen,52.1368173,6.1942166
Bronkhorstermaat 7,Giesbeek,51.9914065,6.0642285
Kethelweg 61,Vlaardingen,51.9188151,4.353165199999999
Reigerlaan 46,Hoevelaken,52.1719877,5.45466
Molenhoek 6,Pesse (Gem. Hoogeveen),52.7673432,6.447376900000001
Klaterbos 110,Hoofddorp,52.3094579,4.6549618
Lattropperstraat 85,Denekamp,52.4013345,6.978993099999999
Dr. Nassaulaan 20,Assen,52.99041339999999,6.5576387
Pastorielaan 28,Veldhoven,51.4065478,5.4013686
Veeringzoom 36,Koog aan de Zaan,52.46408599999999,4.799492499999999
Carmelietenstraat-west 56,Boxmeer,51.6423855,5.9482643
Irenestraat 11,Druten,51.8881579,5.6075781
Boerderijweg 66,Oud-Beijerland,51.8242521,4.4019742
Buitenkwartier 30,Zwartsluis,52.63962309999999,6.0669077
Eerbeekseweg 10,Loenen,52.1151975,6.018405599999999
Burchtenlaan 7,Den Bosch,51.7238668,5.3080147
Abel Tasmanstraat 7,Terneuzen,51.3186826,3.854016299999999
Ezelvense Akkers 45,Tilburg,51.5429375,5.0916451
Kerkstraat 13 A,Driel,51.962562,5.812364
Julianastraat 126,Hoogezand,53.1631227,6.7267126
Tournooistraat 2,Helmond,51.473855,5.646481199999999
Bizetstraat 12,Axel,51.2649405,3.9157758
De Reusel 4,Goirle,51.5223624,5.0426839
Narcisstraat 4,Giesbeek,51.9931654,6.0702663
Landweerstraat-Noord 12,Oss,51.7694625,5.5482302
Afrikalaan 77,Alphen aan den Rijn,52.1200535,4.6553907
Stille Omgang 2,Lepelstraat,51.5465154,4.2750705
Horstlindelaan 44,Enschede,52.24187560000001,6.879435399999999
Parkweg 86,Vlaardingen,51.9101594,4.3566658
de Hoek 13,Eethen,51.7299301,5.052182999999999
Hoogeindsestraat 110,Helmond,51.4737561,5.6572812
Heggerank 10,Cuijk,51.7332805,5.8651165
Ouderkerkerlaan 30,Amstelveen,52.3001872,4.8540333
van Gheselhof 10,Zeist,52.0851548,5.2399198
Brilbeer 28,Heerhugowaard,52.6590608,4.8100492
Dr Holwerdastraat 29,Wijk bij Duurstede,51.9780885,5.3380098
Tiggeltsebergstraat 62,Rijsbergen,51.5216147,4.663096400000001
D. Koddelaan 12,Zoutelande,51.5010343,3.4893636
Frankenlaan 20,Tilburg,51.55557640000001,5.0519529
Driewegenweg 3 a/b,Putten,52.261395,5.6151919
Kennedystraat 40,Heel,51.1826824,5.8984409
Peppengouw 101,Almere,52.3465614,5.212279400000001
Edelhertweg 41,Almere,52.3852669,5.276101400000001
Rozelaar 3,Geffen,51.7359617,5.4650529
M.A. de Ruijterstraat 142,Spijkenisse,51.85033439999999,4.3198051
Spinetstraat 24,Etten-Leur,51.5612453,4.629438800000001
Sint Janstraat 135,Sprundel,51.5393021,4.608173799999999
Hertog van Gelrestraat 21,Rozendaal,52.0024049,5.9621241
Zandpad 13,Breukelen,52.1832,5.008115999999999
Koolhof 7,Gilze,51.5425737,4.9451369
Bosstraat 73,Swalmen,51.2357854,6.0496761
Trageldijk 3,Coevorden,52.65915039999999,6.730178599999999
Oostereind 20,Wachtum,52.7202937,6.7559421
IJzerwerf 4,Nieuwegein,52.01136289999999,5.099457699999999
Kettingpol 43,Herwen,51.886701,6.0982955
Frederik van Eedenhove 15,Nieuwegein,52.0555691,5.0858126
de Wilde Zee 6,Wateringen,52.0220296,4.280772
Beemdstraat 28,Heesch,51.7299429,5.5144724
Oranjefontein 45,Purmerend,52.4897159,4.939311099999999
Nijverdalsestraat 71,Wierden,52.3589431,6.5862802
De Lutteresweg 13 *,Lutten,52.6266109,6.6106712
De Lutteresweg 13,Lutten,52.6266109,6.6106712
Kostverloren 26,Nijkerk,52.2155074,5.4676233
Tollenhof 26,Kesteren,51.93374129999999,5.567841899999999
Ossecamp 10,Castricum,52.5440164,4.6780439
van Rijckevorselstraat 8,Loon op Zand,51.6281285,5.070486799999999
Meerkoet 9,Etten-Leur,51.5761438,4.658358499999999
Vinkenbaan 11,Heiloo,52.607335,4.7118579
de Ruijterstraat 11,Son en Breugel,51.51883729999999,5.5105593
Beukestraat 25,Krommenie,52.49578409999999,4.7603959
Johannes Vermeerstraat 33,Spijkenisse,51.8566119,4.3092989
Kamillestraat 5,Apeldoorn,52.2177957,5.9928602
Schubertlaan 16,Hoogezand,53.1583669,6.7612041
van Beethovenlaan 68,Hazerswoude-Rijndijk,52.1257858,4.594890599999999
Klipgriend 73,Almere,52.33952720000001,5.239327299999999
Singel 136,Bussum,52.2734325,5.1704668
Retranchement 38,Gorinchem,51.834126,4.9870323
Groen van Prinstererstraat 39,Arnhem,51.9797083,5.9250861
Coudorp 17,Nieuwdorp,51.4693907,3.7428444
Wislaan 100,Uden,51.6416383,5.6189873
Jan Dorrekenskade-Oost 67,Waddinxveen,52.042074,4.6584192
't Höltje 42,Helden,51.3174833,6.003029499999999
De Loet 290,Castricum,52.5457897,4.6718382
Burgemeester van der Venstraat 36,Vlijmen,51.6930651,5.211945399999999
Amelterhout 63,Assen,52.9991192,6.5796705
Emmerikseweg 64,Zutphen,52.1333354,6.2024016
Voorstevliet 17,Werkendam,51.80908890000001,4.9003104
Nijvelaar 7,Den Dungen,51.6829027,5.3760678
Bruggemanlanden 73,Enschede,52.1924907,6.9039402
Wagenaarstraat 301,Oss,51.750487,5.5166084
Melkwegsingel 1,Zwijndrecht,51.8207231,4.6391117
Geel-groenlaan 23,Zoetermeer,52.0429924,4.4937764
Swammerdamstraat 20,Amersfoort,52.1442249,5.385640299999999
Blok 1 C,Krommenie,52.5036944,4.771891099999999
Schoolkade 153,Musselkanaal,52.9527937,6.9865726
Poolsterstraat 20,Apeldoorn,52.2168833,5.9417767
Aetsveld 67,Vinkeveen,52.2109791,4.9202721
Loostraat 49 D,Huissen,51.9405443,5.9312763
Rialen 14,Assendelft,52.4687156,4.7444674
Thaliastraat 133,Arnhem,51.9504582,5.848828399999999
Juckemastate 12,Leeuwarden,53.2093538,5.8363077
Ypendael 17,Baarn,52.2169397,5.2685635
Kennemerstraatweg 217,Heiloo,52.5979263,4.7081161
Brugstraat 5,Limmen,52.5721553,4.705438099999999
Grasdreef 36,Eindhoven,51.4356058,5.4165532
Pampagras 7,Houten,52.0133482,5.1854448
Ringiastins 15,Leeuwarden,53.20776830000001,5.8410154
Herenweg 46,Vinkeveen,52.2138005,4.936834900000001
Dorpsstraat 104,Neerkant,51.3742977,5.860088999999999
Karel Doormanlaan 109,Zoetermeer,52.0492014,4.5022499
Molenstraat 76,Bunschoten-Spakenburg,52.2498023,5.376464899999999
J.R. Thorbeckesingel 24,Papendrecht,51.8319725,4.701798
Boekweithof 9,Putten,52.2565859,5.591155
Maalacker 30,Vledder,52.8533468,6.2105295
Hoofdstraat 5,Sassenheim,52.21533489999999,4.5023978
Havikveld 1,Zoetermeer,52.07000499999999,4.5046984
West 100,Avenhorn,52.6246149,4.9441777
Gemondseweg 47,Schijndel,51.6196594,5.4087914
Breedewaij 58,Hardinxveld-Giessendam,51.8220757,4.8435732
Molengracht 34,Den Helder,52.9622124,4.7667923
Veenland 5,Assendelft,52.4853176,4.747099899999999
Paramaribostraat 106,Utrecht,52.0924341,5.086778799999999
Willem Hedastraat 15,Alkmaar,52.6338277,4.7305438
van der Capellenlaan 38,Zutphen,52.15117009999999,6.2122958
Dahliastraat 7,Koog aan de Zaan,52.4581842,4.8109729
Wegedoorn 13,Geldrop,51.4269958,5.5810957
Simone de Beauvoirstraat 11,Nijmegen,51.878933,5.85054
De Weverij 15,Steenbergen (NB),51.582956,4.320449
Van Doesburgstraat 3,Amersfoort,52.1813751,5.3988891
Steinstraat 29,Vaassen,52.2820749,5.955743699999999
Noordweg 15,Oostvoorne,51.9185133,4.102984
K.J.Blokstraat 19,Wilhelminaoord,52.8572205,6.1638763
Tulpstraat 34,Koog aan de Zaan,52.4587415,4.8080457
Begoniastraat 18,Zwolle,52.5013154,6.1064835
Merbau 157,Dordrecht,51.80359379999999,4.7143671
St. Isidorusstraat 23,Leunen,51.50971999999999,5.974737999999999
Frans Halsstraat 22,Meppel,52.6838986,6.186173999999999
Braamkamp 308,Zutphen,52.1240219,6.2038394
Zuiderlingedijk 5,Heukelum,51.8576843,5.0594323
Loolaan 96,Driebergen-Rijsenburg,52.0633337,5.2751652
Heemraadsweg 4,Ouderkerk aan den IJssel,51.9283212,4.6448545
Kruisbergseweg 56,Doetinchem,51.9770477,6.2886671
Tongelresestraat 13,Eindhoven,51.435301,5.4871249
Athenesingel 230,Den Haag,52.0217987,4.2902594
Leo Gestelstraat 27,Almere,52.3786432,5.259777199999999
Imkersdreef 305,Apeldoorn,52.1991114,5.988548
Stationsstraat 27 a-29,Twello,52.2377189,6.1020083
Bongerd 32,Borne,52.3007623,6.7650629
Coldenhovenseweg 52,Eerbeek,52.1005267,6.0632956
Dovenetelweg 71,Zaandam,52.46054179999999,4.82059
Hobbemalaan 102,Alkmaar,52.6354176,4.7232207
Rembrandtstraat 15,Vlijmen,51.6912204,5.198358
Zernikelaan 57,Schoonhoven,51.9465474,4.8374366
Groen van Prinstererstr 8,Hoogezand,53.1550812,6.745845
Zr Persoonsstraat 5,Mariahout,51.5419424,5.5735052
Touwslagerstraat 4,Beverwijk,52.48388809999999,4.6558499
Zalkerbos 12,Hoofddorp,52.3143002,4.6520123
Engweg 4,Lunteren,52.0867392,5.624522499999999
Berkelstraat 18,Amersfoort,52.1608643,5.3635362
Oosterweg M 34,Purmer (Gem. Waterland),52.4818293,5.0007461
Van Leeuwenhoeklaan 65,Vlijmen,51.7005536,5.2094977
Bruntingerbrink 140,Emmen,52.7681785,6.8959879
M.H. Trompstraat 9,Spijkenisse,51.8494815,4.31995
Voirt 19,Nuenen,51.47174039999999,5.5428729
Marnelaan 9,Son en Breugel,51.527836,5.477634800000001
Christinalaan 3,Vorden,52.1013605,6.3134811
Kastanjedal 24,Maassluis,51.9313648,4.2529596
De Genestetstraat 24,Etten-Leur,51.56488969999999,4.6471692
Millweg 30,Arnhem,51.9504826,5.8591731
Appelaarseweg 20,Fijnaart,51.6336662,4.4601502
Betsy Westendorpstraat 21,Apeldoorn,52.2040344,5.9406202
Juttestraat 5,Schoonoord,52.8469358,6.7517115
Fahrenheitstraat 10,IJmuiden,52.4570786,4.6005816
Jaspisdreef 5,Emmen,52.7325641,6.9129814
Parnassiasingel 20,Helmond,51.4958867,5.6843546
Portoricodreef 12,Utrecht,52.1216482,5.096292399999999
Gruttersdreef 103,Apeldoorn,52.20110760000001,5.9849007
Bovenbuurtweg 58,Ede,52.0197619,5.6610242
Prins Bernhardstraat 8,Rijssen,52.3042791,6.509151900000001
Caspar van Baerlehof 11,Beverwijk,52.4787247,4.6471123
De Haarstraat 17,Nijkerk,52.2247888,5.4775025
Spastraat 14,Hengelo (OV),52.2942037,6.8064925
Voorlandseweg 32,Apeldoorn,52.2074592,5.947629999999999
Heiveldstraat 72 A,Kerkrade,50.8636724,6.0391669
Ruizendaallaan 10,Eemnes,52.2463963,5.2517966
Laarwoud 7,Ede,52.0503036,5.6379567
Gangeslaan 118,Purmerend,52.48998659999999,4.9458255
Trechterbeker 65,Borger,52.91794609999999,6.781605799999999
Verenwei 46,Arnhem,51.9631527,5.8654489
Cornetkade 20,Leiden,52.1711597,4.4932251
Javastraat 19,Den Bosch,51.687303,5.3307163
Eratolaan 11,Eindhoven,51.46440070000001,5.4983645
Texelstroom 2,Emmeloord,52.7107817,5.7246853
Pasteurweg 32,Leeuwarden,53.2077967,5.8123592
Floralaan 147,Hardenberg,52.5806214,6.6468544
Gouwestraat 3,Terneuzen,51.31330819999999,3.8590974
Drontermeer 205,Purmerend,52.4935484,4.9744259
Bisonstraat 43,Purmerend,52.500066,4.929454499999999
Marconistraat 28,Enschede,52.2202437,6.9239099
Maarten Lutherweg 132,Amstelveen,52.29295949999999,4.8637309
Lange Bedde 50,Breda,51.5759297,4.7976884
Fagotstraat 4,Duiven,51.94459759999999,5.9944302
P.C. Hooftstraat 20,Zoetermeer,52.0493266,4.491898
Boommarterstraat 39,Heijen,51.67194629999999,5.9816642
Achter de Molen 28,Etten-Leur,51.5623096,4.6460218
Zeelsterstraat 194,Eindhoven,51.4378197,5.4363931
Roerdomp 7,Breda,51.6171243,4.7356075
Dominee Bleekerhof 27,Abcoude,52.2728545,4.9607301
Kruisweg 33,Bergen (NH),52.66688620000001,4.7047444
Deutzhof 59,Assendelft,52.457029,4.735636
Fluitenbergseweg 72 a,Fluitenberg,52.7363621,6.4507809
Kalmoesberg 34,Roosendaal,51.5134885,4.4304863
Bellefleur 9,Uden,51.6683526,5.6039783
Veldstraat 9,Putten,52.255291,5.611177
Bisschopsmolenstraat 227,Etten-Leur,51.5630888,4.6429833
Zwanenveld 3015,Nijmegen,51.82110609999999,5.806135200000001
Pastorieweg 11,Krewerd,53.3555006,6.8495892
Azuriet 33,Leusden,52.1355936,5.4400632
Reyersakker 6,Hedel,51.7517629,5.2563584
Willem Lodewijkhof 2,Alkmaar,52.6200842,4.7428887
's Heerenwei 51,Zevenbergen,51.6380815,4.6025548
Voorlandseweg 37,Apeldoorn,52.2078102,5.9487184
Weverskamp 38,Harderwijk,52.3526949,5.645429600000001
John F. Kennedysingel 11,Melick,51.16145969999999,6.0108505
Henegouwerhof 41,Bodegraven,52.0795775,4.751392099999999
Julianalaan 24,Nieuwer Ter Aa,52.189256,4.9787629
Admiraal de Ruyterlaan 18,Uithoorn,52.2374433,4.830134
Huiskenshof 1,Roermond,51.2008604,6.0204729
Dennenweg 1,Neede,52.1583313,6.5989381
Fluitenbergseweg 72,Fluitenberg,52.7363323,6.4505579
Het Boschloo 106,Warnsveld,52.1311847,6.2371477
Pollux 43,Berkel en Rodenrijs,52.00437220000001,4.485914999999999
Van Aremberglaan 6,Wateringen,52.0290042,4.2736306
Springfontein 2,Purmerend,52.490631,4.9368938
Aan de Kromme Sloot 133,Uitgeest,52.51221289999999,4.706191599999999
Amnestylaan 68,Middelburg,51.4846438,3.6087616
Buorren 80,Houtigehage,53.1560293,6.1480941
Van Polanenpark 91,Wassenaar,52.1499234,4.407013099999999
Baambrugse Zuwe 117 A,Vinkeveen,52.2248239,4.9420451
Kanaalstraat 40,Aalsmeer,52.2709857,4.7460432
Liesbergerhout 8,Harderwijk,52.3215452,5.605375899999999
Rodingsveen 160,'s-Heerenberg,51.8832491,6.264686999999999
Irenestraat 1,Nederweert,51.2862374,5.755548800000001
Mariastraat 19,Mariahout,51.539037,5.5730765
Clara's pad 12,Heinkenszand,51.4754264,3.8132624
B. Vethstraat 63,Bergschenhoek,51.99843,4.498208099999999
Siriusstraat 26,Borne,52.2925283,6.7567407
Alewijnlaan 4,Loosdrecht,52.1981286,5.1421424
De Verwondering 9,Amersfoort,52.19001429999999,5.3914384
Operadreef 28,Harderwijk,52.3263693,5.608965299999999
Borgercompagnie 237,Borgercompagnie (Gem. Veendam),53.0983485,6.833325400000001
Buitenwaarden 24,Grafhorst,52.5853359,5.9374104
Sniedersweide 2,Aalten,51.9142192,6.5834451
Bruggeschans 13,Leusden,52.1455923,5.4298777
Bieskamp 58,Druten,51.88288259999999,5.589392
Andellaan 27,Noordwijkerhout,52.2573984,4.4899463
Malvert 5129,Nijmegen,51.8092778,5.8097217
St Theresiastraat 36,Eindhoven,51.4383098,5.441343799999999
Veerpolderstraat 134 -b,Arnhem,51.9677667,5.919518999999999
Aletta Jacobsstraat 61,Assendelft,52.4621091,4.740607499999999
Markeweg 7,Wedde,53.0716018,7.076638399999999
Delfland 34,Purmerend,52.4963804,4.9681524
Columbusstraat 117,Hoek van Holland,51.9801846,4.1340125
De Snieder 96,Groenlo,52.0348677,6.6050761
Blauwkapelseweg 9,Utrecht,52.0987684,5.1294029
Mgr Zwijsenstraat 17,Eindhoven,51.4251809,5.4994247
Ahrdal 15,Capelle aan den IJssel,51.9363131,4.6110785
Westerscheldestraat 135,Oost-Souburg,51.4706694,3.6078018
De Lint 101,Zevenbergen,51.6421876,4.5850457
Postweg 10,Leersum,52.0116141,5.414700799999999
Hogerwoerdstraat 24 +Garage,Haarlem,52.3977376,4.6377098
Henri Eversstraat 11,Bergschenhoek,51.99052709999999,4.4864999
Pricksteenweg 58,Kerkrade,50.855787,6.072785000000001
Heer Arnoldstraat 41,IJsselstein,52.0185949,5.0471866
Stiendollen 18,Oudemirdum,52.8522914,5.5365014
De Bazelstraat 52,Rotterdam,51.9466142,4.5475096
Koewei 107,Arnhem,51.96538260000001,5.8672673
Bossestraat 126 b,Vogelwaarde,51.3266894,3.9653204
Zuideinde 168,Oostzaan,52.4298514,4.883511899999999
Genderensedijk 2 a,Genderen,51.7393071,5.0756587
Heinsbergerweg 126,Roermond,51.1757229,5.9991396
Marga Klompélaan 297,Arnhem,51.94039069999999,5.8988712
Ahuislanden 76,Enschede,52.1889401,6.8964985
Fortlaan 23,Numansdorp,51.72187630000001,4.4377404
Cattepoelseweg 338,Arnhem,52.00523880000001,5.9090252
Zuidlaan 69,Prinsenbeek,51.593782,4.719483299999999
Pastoor van Beurdenstraat 73,Tilburg,51.5698322,5.0828053
Zuivelstraat 38,Oldenzaal,52.315213,6.9367475
Stedewaarts 15,Assen,53.0052694,6.5134266
Nieuwe Veldjes 19,Twello,52.2356772,6.0945751
Perengaarde 36,Houten,52.0339813,5.1578507
Het Horseler 58,Warnsveld,52.1293225,6.239747299999999
Wilgenlaan 15,Driebruggen,52.0417915,4.7978896
Rhenendael 167,Rhenen,52.0024592,5.5432318
Rietven 46,Enschede,52.2067843,6.9661981
Kamperfoelie 4,Nieuwegein,52.02482080000001,5.0918192
Ringvaartpark 37,Capelle aan den IJssel,51.94943560000001,4.598590199999999
Zadelmakerstraat 58,Duiven,51.9460405,6.033596699999999
Dr. Schaepmanlaan 69,Heemstede,52.3315451,4.616086399999999
Berkenstraat 31 a,Boven-Leeuwen,51.8848017,5.5519377
van Ostadestraat 11,Zaandam,52.45142449999999,4.8083111
Nijlstraat 11,Spijkenisse,51.8426908,4.3555606
Vaartdijk 3 s,Wormerveer,52.496115,4.773835699999999
Elzenhof 20,'s-Gravenzande,51.99701959999999,4.1642421
Wederik 12,Reeuwijk,52.0482893,4.7297516
de Hazelaar 10,Boxmeer,51.65353260000001,5.9326003
Reggedal 20,Capelle aan den IJssel,51.93833189999999,4.6090258
Nieuwe Sluisstraat 4 A,Schiedam,51.9178799,4.3972364
Couwenhoven 6134,Zeist,52.0776422,5.2265142
Korte Loostraat 37,Huissen,51.9395701,5.9351742
Saturnusstraat 22,Haarlem,52.4064314,4.6445991
Roerstraat 10,Emmeloord,52.7099634,5.732480199999999
Stroodorpe 11 a,Sluiskil,51.2748682,3.8356294
Gerbrandystraat 27,Vlissingen,51.4611403,3.5585506
Aubade 63,Zaandam,52.4388754,4.8057677
Kamelenspoor 448,Maarssen,52.13698429999999,5.028180799999999
Prins Willem-Alexanderstraat 12,Pannerden,51.8905237,6.0385896
Rijksstraatweg 36,Amerongen,51.9981383,5.4722268
Spiering 6,Hellevoetsluis,51.830713,4.1586636
De Stelling 10 46,Lelystad,52.5126657,5.4738966
Frans Halsstraat 3,Goes,51.4969715,3.901043
Lentemorgen 24,Uden,51.6430875,5.620615400000001
Rogge-oord 1,Houten,52.0300437,5.1568085
Hoofdstraat 45,Voorthuizen,52.1817554,5.5924584
Vaartdijk 3 F,Wormerveer,52.49565639999999,4.7737979
Parkwerf 84,Almere,52.33963550000001,5.2213926
Binnenhof 15,Veldhoven,51.4324163,5.4064771
Achter de Hoven 17,Sprang-Capelle,51.6685088,5.0387563
Frederikstraat 2,Hardinxveld-Giessendam,51.8308101,4.8354971
Wagenmaker 74,Wijchen,51.7960596,5.7446014
Van de Bleekstraat 54,Terschuur,52.16477949999999,5.5148487
Eelinkstraat 45,Winterswijk,51.9655698,6.7264819
Ekersdijk 79,Enschede,52.2132769,6.966563600000001
Fluessenlaan 16,Amsterdam,52.3498756,4.7785568
Lage Esweg 71,Nijverdal,52.3458632,6.468063
Waghenaerdreef 6,Bergschenhoek,51.9942542,4.5017147
Van Middachtenmarke 55,Zwolle,52.4895169,6.098614
Johan Stratiuslaan 12,Wolfheze,52.0009855,5.794006899999999
Giekwerf 19,Zoetermeer,52.0741605,4.5014464
Slochterstraat 88,Sappemeer,53.1671892,6.7891596
Hazeleger 8,Zeewolde,52.3218522,5.5335266
Noordereinde 259,'s-Graveland,52.2491016,5.120995
Prinsessenhof 36,Heemstede,52.32937039999999,4.6069721
Parkweg 14,Rosmalen,51.7123264,5.3647369
Poterne 5,Veldhoven,51.4299532,5.4080943
Waterput 8,Cuijk,51.745576,5.858442
het Swennink 15,Losser,52.2652162,6.992239
Johan van Galenplantsoen 16,Rijssen,52.3026985,6.534522
Spinbolmolen 33,Papendrecht,51.8410716,4.6960729
Waalstraat 48,Almere,52.3845638,5.2211623
Klaas Benninkstraat 33,Genemuiden,52.6243452,6.0433167
Saffierdrift 6,Nieuwegein,52.0348356,5.073190599999999
Ludingakerke 4,Drachten,53.109305,6.118033
Kon.Wilhelminalaan 6,Nieuwleusen,52.5743625,6.287358900000001
Vuurlibel 18,Son en Breugel,51.5342434,5.4827717
Akkerwindestraat 38,Wijchen,51.8118963,5.7349342
Rijperkerkpark 77,Tilburg,51.586184,4.97448
Rustenburgerlaan 67,Haarlem,52.372481,4.638025
Mariëndaal 95,Enschede,52.20015480000001,6.8669904
Bleyenhoevelaan 1,Velsen-Noord,52.474775,4.6382062
Heereweg 59,Lisse,52.2651036,4.558172799999999
Hoofdkade 48,Ter Apel,52.87340099999999,7.0613898
Brouwerskamp 7,Nunspeet,52.372841,5.788772
Kerkeland 38,Oosterbeek,51.9798102,5.846685799999999
Wevershof 50,Prinsenbeek,51.59195649999999,4.7217135
Van Zuijlen van Nieveltlaan 14,Barneveld,52.1363461,5.5949702
Rapen-oord 7,Houten,52.03101820000001,5.1594263
Drostlaan 59,Emmeloord,52.7087904,5.7350596
Duinvlietstraat 15,Velsen-Noord,52.4748753,4.6454927
Hullerweg 71,Nunspeet,52.3817582,5.7715976
Rembrandtlaan 33,Terneuzen,51.3329695,3.843526299999999
L. Zocherplantsoen 53,Velserbroek,52.4298766,4.669858
Kievietsprenk 3,Vlissingen,51.4659009,3.5790796
Zacharias Jansenstraat 10,Middelburg,51.5055813,3.6205195
Naardenstraat 15,Almere,52.3657891,5.208194
Pinksterbloemweide 12,Woerden,52.0796183,4.8601179
Dahliastraat 8,Sint-Michielsgestel,51.6387356,5.3420739
Potvisstraat 69,Amsterdam,52.42358549999999,4.886991
Achterweg 16,Wassenaar,52.145213,4.3937566
Atalantalaan 3,Aalsmeer,52.2805479,4.8030598
Grutto 14,Hardinxveld-Giessendam,51.8266334,4.822972099999999
Wagekamp 17,Valkenburg (ZH),52.17563,4.447166
De Savornin Lohmanlaan 5,Hillegom,52.2916204,4.5934694
Maarten Tromplaan 77,Twello,52.2326517,6.1041383
Laan oud-Indiëgangers 114,Rijssen,52.3103439,6.490947999999999
Zutphensestraat 151 A,Apeldoorn,52.2096935,6.0100862
Oude Azaleastraat 12,Nijmegen,51.8373842,5.8458407
Noorderdiep 410,Nieuw-Buinen,52.9638449,6.9490845
Eifel 9,Helmond,51.4662592,5.6426417
Bloemstede 315,Maarssen,52.1280746,5.0339691
Marshallstraat 3,Oss,51.7749862,5.520062299999999
Hoefijzer 11,Warnsveld,52.1346079,6.234736
Raadsherenveld 104,Apeldoorn,52.1876051,5.9974754
Notenlaan 98,Sleeuwijk,51.8143761,4.949073900000001
Speenkruid 19,Leeuwarden,53.1884631,5.820200499999999
Lariestraat 35 a,Gemonde,51.6221369,5.3569778
Brunellaan 17,Leerdam,51.8975263,5.0930859
Bachstraat 10,Groesbeek,51.7828931,5.930520599999999
Middenweg 49,Limmen,52.5717952,4.6944969
Maarten Harpertsz. Trompstraat 23,Zutphen,52.1363735,6.213561299999999
Bantswei 9,Anjum,53.3924552,6.147972999999999
Whemelaan 5,Nunspeet,52.37747359999999,5.7851149
Waverstraat 19,Eindhoven,51.4817386,5.4319562
Vleutenseweg 458,Utrecht,52.09463299999999,5.086693400000001
Wilhelminastraat 31,Huissen,51.9342085,5.9364374
Geesterse Binnenweg 4 a,Borculo,52.1198991,6.5235618
Hoflaan 42,Ede,52.04422940000001,5.638203499999999
Karperstraat 81,Aalsmeer,52.2758751,4.8062096
Isidorusplein 9,Beek en Donk,51.5253099,5.635706799999999
Aalscholverlaan 23,Den Bosch,51.719182,5.261475799999999
1e Wormenseweg 204,Apeldoorn,52.20021750000001,5.9737502
Sima 24,Beuningen (GE),51.8597237,5.7691067
Boeg 94,Wijk bij Duurstede,51.9705597,5.3274724
Schoenerstraat 22,Nieuw-Lekkerland,51.88583560000001,4.6622166
Carolinenstraat 11,Stramproy,51.1939011,5.713765899999999
Lavendelhof 23,Oosterhout (NB),51.65292239999999,4.8732617
Dorpsstraat 11,IJzendoorn,51.9068999,5.5306712
Groenstraat 52,Roosendaal,51.5438222,4.4678186
Kinselmeer 24,Zaandam,52.4687626,4.8437752
Leeghwaterstraat 10,Uitgeest,52.52719010000001,4.7047818
